arrival_info,stop_number,stop_name,stop_id,latitude,longitude,direction,route_id,route_name
52分鐘,1,瑞湖街口,1149400220,25.067523,121.576485,go,0100000A00,0東
55分鐘,2,麗寶大樓,1149100300,25.070424,121.58271,go,0100000A00,0東
56分鐘,3,公館山,1149100000,25.071952,121.581177,go,0100000A00,0東
57分鐘,4,瑞光路,1147400070,25.074746,121.5776,go,0100000A00,0東
59分鐘,5,內湖運動中心,1144800300,25.07724,121.5755879,go,0100000A00,0東
59分鐘,6,港墘派出所,1144800100,25.0787,121.57642,go,0100000A00,0東
預計20:30發車,7,西湖圖書館(湖光教會),1144700020,25.078723,121.5785305,go,0100000A00,0東
預計20:30發車,8,湖光國宅,1147500320,25.078356,121.5815972,go,0100000A00,0東
預計20:30發車,9,捷運文德站(碧湖公園),1147500220,25.078401,121.5841327,go,0100000A00,0東
內湖高中,1147500020預計20:30發車,10,,25.078703,121.5875658,go,0100000A00,0東
預計20:30發車,11,方濟中學,1146000140,25.076435,121.5900771,go,0100000A00,0東
預計20:30發車,12,將軍嶺,1147200240,25.073372,121.58972,go,0100000A00,0東
預計20:30發車,13,三總內湖站,1149000100,25.071852,121.592095,go,0100000A00,0東
預計20:30發車,14,國防醫學中心,1147200140,25.071037,121.5898699,go,0100000A00,0東
預計20:30發車,15,內湖行政大樓,1146600160,25.06916,121.58832,go,0100000A00,0東
預計20:30發車,16,三民國中,1146600060,25.06901,121.58556,go,0100000A00,0東
預計20:30發車,17,時報廣場,1149401060,25.06856,121.5831298,go,0100000A00,0東
預計20:30發車,18,民權大橋,1149400360,25.06702,121.5791,go,0100000A00,0東
預計20:30發車,19,新益里,1059200140,25.062286,121.566155,go,0100000A00,0東
預計20:30發車,20,民生國中,1059100040,25.059661,121.5679233,go,0100000A00,0東
預計20:30發車,21,新東街口,1058900160,25.059272,121.5663967,go,0100000A00,0東
預計20:30發車,22,三民路,1058200140,25.0575,121.5634,go,0100000A00,0東
預計20:30發車,23,三民健康路口(西松高中),1058200040,25.055245,121.5635808,go,0100000A00,0東
預計20:30發車,24,健康新城,1058600260,25.054217,121.5621625,go,0100000A00,0東
預計20:30發車,25,長壽公園,1058600160,25.054069,121.559764,go,0100000A00,0東
預計20:30發車,26,三軍總醫院松山分院,1056400060,25.053881,121.5578743,go,0100000A00,0東
預計20:30發車,27,南京新村,1057900140,25.052778,121.5568095,go,0100000A00,0東
預計20:30發車,28,博仁醫院,1056000040,25.04937,121.55774,go,0100000A00,0東
預計20:30發車,29,光復路口,1055400060,25.048151,121.5567576,go,0100000A00,0東
進站中,30,美仁里,1055400160,25.04821,121.553906,go,0100000A00,0東
進站中,31,臺視,1055900061,25.048248,121.551437,go,0100000A00,0東
5分鐘,32,市民敦化路口,1055700240,25.045271,121.548797,go,0100000A00,0東
6分鐘,33,忠孝敦化路口,1069000140,25.041865,121.5487541,go,0100000A00,0東
8分鐘,34,仁愛敦化路口,1068500140,25.039043,121.548697,go,0100000A00,0東
11分鐘,35,信義敦化路口,1068100141,25.034123,121.5485022,go,0100000A00,0東
14分鐘,36,信義大安路口,1068400060,25.033383,121.5461666,go,0100000A00,0東
15分鐘,37,捷運大安站(信義),1068400260,25.033404,121.5438266,go,0100000A00,0東
15分鐘,38,師大附中,1065800360,25.033382,121.542275,go,0100000A00,0東
17分鐘,39,信義建國路口,1065800160,25.033595,121.538468,go,0100000A00,0東
18分鐘,40,捷運大安森林公園站,1065600460,25.03355,121.5359159,go,0100000A00,0東
18分鐘,41,信義新生路口,1065600360,25.033627,121.5331327,go,0100000A00,0東
20分鐘,42,信義永康街口,1065100260,25.033765,121.5301447,go,0100000A00,0東
21分鐘,43,捷運東門站,1005700060,25.034232,121.526986,go,0100000A00,0東
23分鐘,44,信義杭州路口,1004800860,25.035417,121.5246296,go,0100000A00,0東
25分鐘,45,中正紀念堂,1004800960,25.03739,121.52056,go,0100000A00,0東
28分鐘,46,捷運台大醫院站,1004801100,25.041927,121.5163535,go,0100000A00,0東
30分鐘,47,博物館(館前),1004700200,25.044177,121.5150573,go,0100000A00,0東
31分鐘,48,臺北車站(忠孝),1004100720,25.046563,121.5156894,go,0100000A00,0東
,1,臺北車站(公園),1004700340,25.043929,121.516775,go,0100000A00,0東
,2,捷運台大醫院站,1004600040,25.041935,121.5161481,go,0100000A00,0東
,3,中正紀念堂,1004800920,25.037153,121.520771,go,0100000A00,0東
,4,信義杭州路口,1004800820,25.0357,121.5238361,go,0100000A00,0東
,5,捷運東門站,1064100120,25.034134,121.5269937,go,0100000A00,0東
,6,信義永康街口(捷運東門站),1065000320,25.033693,121.529727,go,0100000A00,0東
,7,信義新生路口,1006100020,25.03353,121.5323283,go,0100000A00,0東
,8,捷運大安森林公園站,1065600420,25.033496,121.5356316,go,0100000A00,0東
,9,信義建國路口,1065800120,25.033441,121.539045,go,0100000A00,0東
,10,捷運大安站(信義),1065800420,25.033323,121.5432319,go,0100000A00,0東
,11,信義大安路口,1068300220,25.0332,121.5456,go,0100000A00,0東
,12,信義敦化路口,1068100120,25.033262,121.548298,go,0100000A00,0東
,13,仁愛國中,1068900100,25.035951,121.5490897,go,0100000A00,0東
,14,安和敦化路口,1068900400,25.039761,121.5489579,go,0100000A00,0東
,15,捷運忠孝敦化站,1069000200,25.043012,121.549174,go,0100000A00,0東
,16,市民大道口,1055700000,25.045757,121.5491941,go,0100000A00,0東
,17,臺視,1055900020,25.04807,121.5511,go,0100000A00,0東
,18,美仁里,1055400120,25.048,121.55415,go,0100000A00,0東
,19,榮民服務處,1056000100,25.048703,121.557946,go,0100000A00,0東
,20,南京新村,1057900100,25.052989,121.556952,go,0100000A00,0東
,21,三軍總醫院松山分院,1058600020,25.05367,121.55726,go,0100000A00,0東
,22,長壽公園,1058600120,25.05381,121.55985,go,0100000A00,0東
,23,健康新城,1058600220,25.053978,121.5626621,go,0100000A00,0東
,24,三民健康路口(西松高中),1058200000,25.054814,121.5638473,go,0100000A00,0東
,25,三民路,1058200100,25.05753,121.56368,go,0100000A00,0東
,26,新東街口,1058900120,25.05902,121.5664423,go,0100000A00,0東
,27,民生國中,1059400200,25.060189,121.5676949,go,0100000A00,0東
,28,新益里,1059200100,25.062445,121.566269,go,0100000A00,0東
,29,民權大橋,1149400320,25.066876,121.5794778,go,0100000A00,0東
,30,時報廣場,1149401020,25.068084,121.5821211,go,0100000A00,0東
,31,三民國中,1146600020,25.068803,121.5854057,go,0100000A00,0東
,32,內湖行政大樓,1146600120,25.068934,121.5889192,go,0100000A00,0東
,33,國防醫學中心,1147200100,25.07121,121.5900311,go,0100000A00,0東
,34,三總內湖站,1149000200,25.071852,121.592095,go,0100000A00,0東
,35,將軍嶺,1147200200,25.073809,121.5900167,go,0100000A00,0東
,36,方濟中學,1146200000,25.076884,121.5902313,go,0100000A00,0東
,37,內湖高中,1147500060,25.079013,121.5883097,go,0100000A00,0東
,38,捷運文德站(碧湖公園),1147500260,25.078585,121.584249,go,0100000A00,0東
,39,湖光國宅,1147300060,25.07859,121.58078,go,0100000A00,0東
,40,西湖圖書館(湖光教會),1144700061,25.07889,121.578499,go,0100000A00,0東
,41,港墘派出所,1144800240,25.078636,121.57619,go,0100000A00,0東
,42,瑞光路,1149100230,25.074821,121.577343,go,0100000A00,0東
,43,公館山,1149100040,25.071988,121.5809507,go,0100000A00,0東
,44,麗寶大樓,1149100340,25.070391,121.582671,go,0100000A00,0東
,45,瑞湖街口,1149400261,25.067659,121.576798,go,0100000A00,0東
,1,瑞湖街口,1149400220,25.067523,121.576485,come,0100000A00,0東
,2,麗寶大樓,1149100300,25.070424,121.58271,come,0100000A00,0東
,3,公館山,1149100000,25.071952,121.581177,come,0100000A00,0東
,4,瑞光路,1147400070,25.074746,121.5776,come,0100000A00,0東
,5,內湖運動中心,1144800300,25.07724,121.5755879,come,0100000A00,0東
,6,港墘派出所,1144800100,25.0787,121.57642,come,0100000A00,0東
,7,西湖圖書館(湖光教會),1144700020,25.078723,121.5785305,come,0100000A00,0東
,8,湖光國宅,1147500320,25.078356,121.5815972,come,0100000A00,0東
,9,捷運文德站(碧湖公園),1147500220,25.078401,121.5841327,come,0100000A00,0東
,10,內湖高中,1147500020,25.078703,121.5875658,come,0100000A00,0東
,11,方濟中學,1146000140,25.076435,121.5900771,come,0100000A00,0東
,12,將軍嶺,1147200240,25.073372,121.58972,come,0100000A00,0東
,13,三總內湖站,1149000100,25.071852,121.592095,come,0100000A00,0東
,14,國防醫學中心,1147200140,25.071037,121.5898699,come,0100000A00,0東
,15,內湖行政大樓,1146600160,25.06916,121.58832,come,0100000A00,0東
,16,三民國中,1146600060,25.06901,121.58556,come,0100000A00,0東
,17,時報廣場,1149401060,25.06856,121.5831298,come,0100000A00,0東
,18,民權大橋,1149400360,25.06702,121.5791,come,0100000A00,0東
,19,新益里,1059200140,25.062286,121.566155,come,0100000A00,0東
,20,民生國中,1059100040,25.059661,121.5679233,come,0100000A00,0東
,21,新東街口,1058900160,25.059272,121.5663967,come,0100000A00,0東
,22,三民路,1058200140,25.0575,121.5634,come,0100000A00,0東
,23,三民健康路口(西松高中),1058200040,25.055245,121.5635808,come,0100000A00,0東
,24,健康新城,1058600260,25.054217,121.5621625,come,0100000A00,0東
,25,長壽公園,1058600160,25.054069,121.559764,come,0100000A00,0東
,26,三軍總醫院松山分院,1056400060,25.053881,121.5578743,come,0100000A00,0東
,27,南京新村,1057900140,25.052778,121.5568095,come,0100000A00,0東
,28,博仁醫院,1056000040,25.04937,121.55774,come,0100000A00,0東
,29,光復路口,1055400060,25.048151,121.5567576,come,0100000A00,0東
,30,美仁里,1055400160,25.04821,121.553906,come,0100000A00,0東
,31,臺視,1055900061,25.048248,121.551437,come,0100000A00,0東
,32,市民敦化路口,1055700240,25.045271,121.548797,come,0100000A00,0東
,33,忠孝敦化路口,1069000140,25.041865,121.5487541,come,0100000A00,0東
,34,仁愛敦化路口,1068500140,25.039043,121.548697,come,0100000A00,0東
,35,信義敦化路口,1068100141,25.034123,121.5485022,come,0100000A00,0東
,36,信義大安路口,1068400060,25.033383,121.5461666,come,0100000A00,0東
,37,捷運大安站(信義),1068400260,25.033404,121.5438266,come,0100000A00,0東
,38,師大附中,1065800360,25.033382,121.542275,come,0100000A00,0東
,39,信義建國路口,1065800160,25.033595,121.538468,come,0100000A00,0東
,40,捷運大安森林公園站,1065600460,25.03355,121.5359159,come,0100000A00,0東
,41,信義新生路口,1065600360,25.033627,121.5331327,come,0100000A00,0東
,42,信義永康街口,1065100260,25.033765,121.5301447,come,0100000A00,0東
,43,捷運東門站,1005700060,25.034232,121.526986,come,0100000A00,0東
,44,信義杭州路口,1004800860,25.035417,121.5246296,come,0100000A00,0東
,45,中正紀念堂,1004800960,25.03739,121.52056,come,0100000A00,0東
,46,捷運台大醫院站,1004801100,25.041927,121.5163535,come,0100000A00,0東
,47,博物館(館前),1004700200,25.044177,121.5150573,come,0100000A00,0東
,48,臺北車站(忠孝),1004100720,25.046563,121.5156894,come,0100000A00,0東
33分鐘,1,臺北車站(公園),1004700340,25.043929,121.516775,come,0100000A00,0東
35分鐘,2,捷運台大醫院站,1004600040,25.041935,121.5161481,come,0100000A00,0東
39分鐘,3,中正紀念堂,1004800920,25.037153,121.520771,come,0100000A00,0東
40分鐘,4,信義杭州路口,1004800820,25.0357,121.5238361,come,0100000A00,0東
進站中,5,捷運東門站,1064100120,25.034134,121.5269937,come,0100000A00,0東
3分鐘,6,信義永康街口(捷運東門站),1065000320,25.033693,121.529727,come,0100000A00,0東
5分鐘,7,信義新生路口,1006100020,25.03353,121.5323283,come,0100000A00,0東
5分鐘,8,捷運大安森林公園站,1065600420,25.033496,121.5356316,come,0100000A00,0東
7分鐘,9,信義建國路口,1065800120,25.033441,121.539045,come,0100000A00,0東
9分鐘,10,捷運大安站(信義),1065800420,25.033323,121.5432319,come,0100000A00,0東
10分鐘,11,信義大安路口,1068300220,25.0332,121.5456,come,0100000A00,0東
11分鐘,12,信義敦化路口,1068100120,25.033262,121.548298,come,0100000A00,0東
14分鐘,13,仁愛國中,1068900100,25.035951,121.5490897,come,0100000A00,0東
14分鐘,14,安和敦化路口,1068900400,25.039761,121.5489579,come,0100000A00,0東
進站中,15,捷運忠孝敦化站,1069000200,25.043012,121.549174,come,0100000A00,0東
4分鐘,16,市民大道口,1055700000,25.045757,121.5491941,come,0100000A00,0東
7分鐘,17,臺視,1055900020,25.04807,121.5511,come,0100000A00,0東
8分鐘,18,美仁里,1055400120,25.048,121.55415,come,0100000A00,0東
10分鐘,19,榮民服務處,1056000100,25.048703,121.557946,come,0100000A00,0東
12分鐘,20,南京新村,1057900100,25.052989,121.556952,come,0100000A00,0東
13分鐘,21,三軍總醫院松山分院,1058600020,25.05367,121.55726,come,0100000A00,0東
16分鐘,22,長壽公園,1058600120,25.05381,121.55985,come,0100000A00,0東
17分鐘,23,健康新城,1058600220,25.053978,121.5626621,come,0100000A00,0東
18分鐘,24,三民健康路口(西松高中),1058200000,25.054814,121.5638473,come,0100000A00,0東
19分鐘,25,三民路,1058200100,25.05753,121.56368,come,0100000A00,0東
22分鐘,26,新東街口,1058900120,25.05902,121.5664423,come,0100000A00,0東
23分鐘,27,民生國中,1059400200,25.060189,121.5676949,come,0100000A00,0東
24分鐘,28,新益里,1059200100,25.062445,121.566269,come,0100000A00,0東
28分鐘,29,民權大橋,1149400320,25.066876,121.5794778,come,0100000A00,0東
30分鐘,30,時報廣場,1149401020,25.068084,121.5821211,come,0100000A00,0東
進站中,31,三民國中,1146600020,25.068803,121.5854057,come,0100000A00,0東
進站中,32,內湖行政大樓,1146600120,25.068934,121.5889192,come,0100000A00,0東
5分鐘,33,國防醫學中心,1147200100,25.07121,121.5900311,come,0100000A00,0東
7分鐘,34,三總內湖站,1149000200,25.071852,121.592095,come,0100000A00,0東
進站中,35,將軍嶺,1147200200,25.073809,121.5900167,come,0100000A00,0東
進站中,36,方濟中學,1146200000,25.076884,121.5902313,come,0100000A00,0東
進站中,37,內湖高中,1147500060,25.079013,121.5883097,come,0100000A00,0東
3分鐘,38,捷運文德站(碧湖公園),1147500260,25.078585,121.584249,come,0100000A00,0東
4分鐘,39,湖光國宅,1147300060,25.07859,121.58078,come,0100000A00,0東
5分鐘,40,西湖圖書館(湖光教會),1144700061,25.07889,121.578499,come,0100000A00,0東
7分鐘,41,港墘派出所,1144800240,25.078636,121.57619,come,0100000A00,0東
9分鐘,42,瑞光路,1149100230,25.074821,121.577343,come,0100000A00,0東
11分鐘,43,公館山,1149100040,25.071988,121.5809507,come,0100000A00,0東
11分鐘,44,麗寶大樓,1149100340,25.070391,121.582671,come,0100000A00,0東
15分鐘,45,瑞湖街口,1149400261,25.067659,121.576798,come,0100000A00,0東
尚未發車,1,萬芳社區,1166500360,25.001753,121.570457,go,0100000B00,0南
尚未發車,2,萬芳活動中心,1166500460,25.002436,121.569474,go,0100000B00,0南
尚未發車,3,萬芳國小,1165300420,25.001037,121.5680544,go,0100000B00,0南
尚未發車,4,萬芳6號公園,1165300540,24.999962,121.56892,go,0100000B00,0南
尚未發車,5,萬利街口,1165400260,24.999065,121.567262,go,0100000B00,0南
尚未發車,6,棕櫚泉社區,1169600360,24.997568,121.5625566,go,0100000B00,0南
尚未發車,7,文山運動中心(萬芳),1169600060,24.99706,121.5603813,go,0100000B00,0南
尚未發車,8,臺灣警察專科學校,1169800200,24.997677,121.559454,go,0100000B00,0南
尚未發車,9,捷運萬芳醫院站,1169600260,24.999259,121.557829,go,0100000B00,0南
尚未發車,10,中國科技大學(興隆),1169400000,25.000405,121.5557979,go,0100000B00,0南
尚未發車,11,興隆國小,1169200360,25.001459,121.5530398,go,0100000B00,0南
尚未發車,12,興德國小,1169200560,25.000982,121.5500736,go,0100000B00,0南
尚未發車,13,興隆市場,1168900260,24.999584,121.5474484,go,0100000B00,0南
尚未發車,14,靜心高中,1168700360,24.998953,121.545835,go,0100000B00,0南
尚未發車,15,憲光公寓,1168000100,24.999719,121.5439365,go,0100000B00,0南
尚未發車,16,景明街口,1168200060,25.001808,121.5422591,go,0100000B00,0南
尚未發車,17,武功國小(興隆),1168100060,25.004266,121.5399955,go,0100000B00,0南
尚未發車,18,師大分部,1167700000,25.00767,121.5384703,go,0100000B00,0南
尚未發車,19,捷運公館站,1009000100,25.013993,121.535185,go,0100000B00,0南
進站中,20,臺大,1067300800,25.018029,121.53375,go,0100000B00,0南
進站中,21,臺大綜合體育館,1066000100,25.021405,121.5343881,go,0100000B00,0南
4分鐘,22,溫州街口,1064400460,25.026354,121.5326938,go,0100000B00,0南
5分鐘,23,師大綜合大樓,1064400360,25.026622,121.53006,go,0100000B00,0南
5分鐘,24,師大,1064400260,25.026738,121.5277134,go,0100000B00,0南
7分鐘,25,金山潮州街口,1064400100,25.028663,121.526353,go,0100000B00,0南
8分鐘,26,公企中心,1064200000,25.03066,121.52673,go,0100000B00,0南
8分鐘,27,捷運東門站(金山),1065000500,25.033211,121.5272129,go,0100000B00,0南
,1,信義永康街口(捷運東門站),1065000320,25.033693,121.529727,go,0100000B00,0南
,2,金華新生路口,1065000240,25.03087,121.53346,go,0100000B00,0南
,3,和平新生路口,1064400040,25.02639,121.53478,go,0100000B00,0南
,4,龍安國小(公務人力發展學院),1066000240,25.024664,121.5345198,go,0100000B00,0南
,5,臺大綜合體育館,1066000140,25.02155,121.5341136,go,0100000B00,0南
,6,臺大,1067300840,25.018239,121.533435,go,0100000B00,0南
,7,捷運公館站,1009000140,25.014321,121.534722,go,0100000B00,0南
,8,師大分部,1167700041,25.00814,121.538064,go,0100000B00,0南
,9,武功國小(興隆),1168100020,25.004127,121.5398685,go,0100000B00,0南
,10,景明街口,1168000020,25.001631,121.5422579,go,0100000B00,0南
,11,憲光公寓,1168000140,24.999433,121.5438916,go,0100000B00,0南
,12,靜心高中,1168700320,24.998797,121.545859,go,0100000B00,0南
,13,興隆市場,1168700020,24.999632,121.547902,go,0100000B00,0南
,14,興德國小,1168900420,25.00097,121.5503078,go,0100000B00,0南
,15,興隆國小,1169000020,25.001221,121.5533283,go,0100000B00,0南
,16,捷運萬芳醫院站,1169500121,24.999051,121.557681,go,0100000B00,0南
,17,臺灣警察專科學校,1169800240,24.998268,121.5584948,go,0100000B00,0南
,18,文山運動中心(萬芳),1169600020,24.996958,121.56078,go,0100000B00,0南
,19,棕櫚泉社區,1169600320,24.99729,121.56229,go,0100000B00,0南
,20,萬利街口,1165300220,24.998733,121.56623,go,0100000B00,0南
,21,捷運萬芳社區站,1165300120,24.998858,121.5680836,go,0100000B00,0南
,22,萬芳6號公園,1165300500,24.999654,121.569055,go,0100000B00,0南
,23,萬芳國小,1165300460,25.001533,121.567472,go,0100000B00,0南
,24,萬芳活動中心,1166500420,25.002391,121.5683789,go,0100000B00,0南
,25,萬芳社區,1165300320,25.002253,121.5698159,go,0100000B00,0南
,1,萬芳社區,1166500360,25.001753,121.570457,come,0100000B00,0南
,2,萬芳活動中心,1166500460,25.002436,121.569474,come,0100000B00,0南
,3,萬芳國小,1165300420,25.001037,121.5680544,come,0100000B00,0南
,4,萬芳6號公園,1165300540,24.999962,121.56892,come,0100000B00,0南
,5,萬利街口,1165400260,24.999065,121.567262,come,0100000B00,0南
,6,棕櫚泉社區,1169600360,24.997568,121.5625566,come,0100000B00,0南
,7,文山運動中心(萬芳),1169600060,24.99706,121.5603813,come,0100000B00,0南
,8,臺灣警察專科學校,1169800200,24.997677,121.559454,come,0100000B00,0南
,9,捷運萬芳醫院站,1169600260,24.999259,121.557829,come,0100000B00,0南
,10,中國科技大學(興隆),1169400000,25.000405,121.5557979,come,0100000B00,0南
,11,興隆國小,1169200360,25.001459,121.5530398,come,0100000B00,0南
,12,興德國小,1169200560,25.000982,121.5500736,come,0100000B00,0南
,13,興隆市場,1168900260,24.999584,121.5474484,come,0100000B00,0南
,14,靜心高中,1168700360,24.998953,121.545835,come,0100000B00,0南
,15,憲光公寓,1168000100,24.999719,121.5439365,come,0100000B00,0南
,16,景明街口,1168200060,25.001808,121.5422591,come,0100000B00,0南
,17,武功國小(興隆),1168100060,25.004266,121.5399955,come,0100000B00,0南
,18,師大分部,1167700000,25.00767,121.5384703,come,0100000B00,0南
,19,捷運公館站,1009000100,25.013993,121.535185,come,0100000B00,0南
,20,臺大,1067300800,25.018029,121.53375,come,0100000B00,0南
,21,臺大綜合體育館,1066000100,25.021405,121.5343881,come,0100000B00,0南
,22,溫州街口,1064400460,25.026354,121.5326938,come,0100000B00,0南
,23,師大綜合大樓,1064400360,25.026622,121.53006,come,0100000B00,0南
,24,師大,1064400260,25.026738,121.5277134,come,0100000B00,0南
,25,金山潮州街口,1064400100,25.028663,121.526353,come,0100000B00,0南
,26,公企中心,1064200000,25.03066,121.52673,come,0100000B00,0南
,27,捷運東門站(金山),1065000500,25.033211,121.5272129,come,0100000B00,0南
11分鐘,1,信義永康街口(捷運東門站),1065000320,25.033693,121.529727,come,0100000B00,0南
13分鐘,2,金華新生路口,1065000240,25.03087,121.53346,come,0100000B00,0南
14分鐘,3,和平新生路口,1064400040,25.02639,121.53478,come,0100000B00,0南
16分鐘,4,龍安國小(公務人力發展學院),1066000240,25.024664,121.5345198,come,0100000B00,0南
17分鐘,5,臺大綜合體育館,1066000140,25.02155,121.5341136,come,0100000B00,0南
18分鐘,6,臺大,1067300840,25.018239,121.533435,come,0100000B00,0南
20分鐘,7,捷運公館站,1009000140,25.014321,121.534722,come,0100000B00,0南
22分鐘,8,師大分部,1167700041,25.00814,121.538064,come,0100000B00,0南
24分鐘,9,武功國小(興隆),1168100020,25.004127,121.5398685,come,0100000B00,0南
26分鐘,10,景明街口,1168000020,25.001631,121.5422579,come,0100000B00,0南
26分鐘,11,憲光公寓,1168000140,24.999433,121.5438916,come,0100000B00,0南
28分鐘,12,靜心高中,1168700320,24.998797,121.545859,come,0100000B00,0南
28分鐘,13,興隆市場,1168700020,24.999632,121.547902,come,0100000B00,0南
29分鐘,14,興德國小,1168900420,25.00097,121.5503078,come,0100000B00,0南
31分鐘,15,興隆國小,1169000020,25.001221,121.5533283,come,0100000B00,0南
進站中,16,捷運萬芳醫院站,1169500121,24.999051,121.557681,come,0100000B00,0南
3分鐘,17,臺灣警察專科學校,1169800240,24.998268,121.5584948,come,0100000B00,0南
4分鐘,18,文山運動中心(萬芳),1169600020,24.996958,121.56078,come,0100000B00,0南
5分鐘,19,棕櫚泉社區,1169600320,24.99729,121.56229,come,0100000B00,0南
6分鐘,20,萬利街口,1165300220,24.998733,121.56623,come,0100000B00,0南
7分鐘,21,捷運萬芳社區站,1165300120,24.998858,121.5680836,come,0100000B00,0南
8分鐘,22,萬芳6號公園,1165300500,24.999654,121.569055,come,0100000B00,0南
8分鐘,23,萬芳國小,1165300460,25.001533,121.567472,come,0100000B00,0南
9分鐘,24,萬芳活動中心,1166500420,25.002391,121.5683789,come,0100000B00,0南
9分鐘,25,萬芳社區,1165300320,25.002253,121.5698159,come,0100000B00,0南
6分鐘,1,華江站,1037600320,25.032283,121.4889513,go,0100000100,1
6分鐘,2,人壽一村,1085800020,25.031523,121.4902758,go,0100000100,1
7分鐘,3,大理高中,1088300000,25.031919,121.491328,go,0100000100,1
8分鐘,4,華江派出所,1088300100,25.034114,121.4933405,go,0100000100,1
9分鐘,5,中國時報,1085500120,25.035221,121.496276,go,0100000100,1
11分鐘,6,捷運龍山寺站,1085500320,25.035143,121.500164,go,0100000100,1
12分鐘,7,昆明街口,1085100020,25.0351,121.5024902,go,0100000100,1
進站中,8,和平中華路口,1006800120,25.032422,121.5062725,go,0100000100,1
進站中,9,植物園,1007000220,25.030056,121.509834,go,0100000100,1
3分鐘,10,建國中學,1006600420,25.029178,121.513095,go,0100000100,1
4分鐘,11,自來水西分處(寧波),1007500020,25.029828,121.5157,go,0100000100,1
6分鐘,12,聯合醫院婦幼院區一,1007500340,25.029987,121.5180375,go,0100000100,1
7分鐘,13,南昌家具街,1008400140,25.027364,121.520315,go,0100000100,1
12分鐘,14,羅斯福金門街口,1008400340,25.024288,121.5243501,go,0100000100,1
13分鐘,15,羅斯福浦城街口,1064600340,25.022418,121.5260858,go,0100000100,1
進站中,16,捷運台電大樓站,1008900420,25.020027,121.528697,go,0100000100,1
進站中,17,台電大樓,1067300240,25.017546,121.531379,go,0100000100,1
3分鐘,18,捷運公館站,1009000140,25.014321,121.534722,go,0100000100,1
7分鐘,19,公館,1067300020,25.012096,121.5385308,go,0100000100,1
8分鐘,20,臺灣科技大學,1060700020,25.013453,121.5401488,go,0100000100,1
進站中,21,臺大癌醫(基隆路),1067200720,25.015521,121.5425256,go,0100000100,1
進站中,22,基隆長興街口,1067200320,25.017425,121.5448494,go,0100000100,1
3分鐘,23,和平高中,1105200100,25.01963,121.54746,go,0100000100,1
6分鐘,24,捷運六張犁站(基隆路),1067500200,25.023636,121.5519069,go,0100000100,1
7分鐘,25,喬治商職,1105400100,25.02628,121.5549231,go,0100000100,1
9分鐘,26,三興國小(臨江街觀光夜市),1105300100,25.028574,121.557017,go,0100000100,1
11分鐘,27,吳興街口,1105200000,25.031596,121.5588464,go,0100000100,1
13分鐘,28,世貿中心(莊敬),1104900140,25.031446,121.56127,go,0100000100,1
14分鐘,29,景新里,1104900440,25.02923,121.5624103,go,0100000100,1
14分鐘,30,臺北醫學大學,1105000340,25.028273,121.5632643,go,0100000100,1
16分鐘,31,信義國中(莊敬),1105000240,25.027402,121.565724,go,0100000100,1
17分鐘,32,吳興國小(莊敬),1105000020,25.026725,121.568122,go,0100000100,1
19分鐘,33,松仁路,1104600240,25.024432,121.569585,go,0100000100,1
,1,松仁路,1104600200,25.02453,121.5695997,go,0100000100,1
,2,吳興國小(松仁),1104600000,25.026234,121.568628,go,0100000100,1
,3,信義國中(莊敬),1105000200,25.027607,121.56521,go,0100000100,1
,4,臺北醫學大學,1105000300,25.028241,121.5634888,go,0100000100,1
,5,景新里,1104900400,25.029526,121.5623852,go,0100000100,1
,6,世貿中心(莊敬),1104900100,25.031399,121.561326,go,0100000100,1
,7,吳興街口,1105200040,25.031594,121.5586001,go,0100000100,1
,8,三興國小(臨江街觀光夜市),1067700140,25.028215,121.556522,go,0100000100,1
,9,喬治商職,1067500340,25.02633,121.5546403,go,0100000100,1
,10,捷運六張犁站(基隆路),1067500240,25.023428,121.551345,go,0100000100,1
,11,和平高中,1105200140,25.02024,121.54763,go,0100000100,1
,12,基隆長興街口,1067200460,25.018512,121.5456371,go,0100000100,1
,13,臺大癌醫(基隆路),1067200760,25.015713,121.5422472,go,0100000100,1
,14,臺灣科技大學,1060700060,25.014151,121.540464,go,0100000100,1
,15,公館,1067300060,25.012108,121.5380694,go,0100000100,1
,16,捷運公館站,1009000160,25.015228,121.534086,go,0100000100,1
,17,台電大樓,1067300200,25.018486,121.530566,go,0100000100,1
,18,捷運台電大樓站,1064700300,25.02092,121.52803,go,0100000100,1
,19,羅斯福浦城街口,1064600300,25.022311,121.5265002,go,0100000100,1
,20,羅斯福金門街口,1008400300,25.024106,121.5246768,go,0100000100,1
,21,捷運古亭站(羅斯福),1008400200,25.02678,121.52269,go,0100000100,1
,22,捷運古亭站(杭州),1064200100,25.02886,121.5219375,go,0100000100,1
,23,南福板溪(南昌公園),1007800060,25.02681,121.52053,go,0100000100,1
,24,牯嶺街,1007800300,25.02814,121.51789,go,0100000100,1
,25,自來水西分處(牯嶺),1007600100,25.029865,121.5166342,go,0100000100,1
,26,牯嶺街小劇場,1007500200,25.03176,121.51518,go,0100000100,1
,27,建國中學(歷史博物館),1006600560,25.031565,121.512879,go,0100000100,1
,28,植物園,1007000260,25.03088,121.508711,go,0100000100,1
,29,和平中華路口,1006600360,25.033191,121.50578,go,0100000100,1
,30,昆明街口,1085100060,25.035341,121.5020082,go,0100000100,1
,31,捷運龍山寺站,1085200360,25.03538,121.49971,go,0100000100,1
,32,中國時報,1085500160,25.035454,121.4969752,go,0100000100,1
,33,華江派出所,1088300140,25.034006,121.493016,go,0100000100,1
,34,大理高中,1085800140,25.03162,121.490827,go,0100000100,1
,35,人壽一村,1085800060,25.032073,121.4895177,go,0100000100,1
,36,華江站,1085800360,25.032333,121.4889822,go,0100000100,1
,1,華江站,1037600320,25.032283,121.4889513,come,0100000100,1
,2,人壽一村,1085800020,25.031523,121.4902758,come,0100000100,1
,3,大理高中,1088300000,25.031919,121.491328,come,0100000100,1
,4,華江派出所,1088300100,25.034114,121.4933405,come,0100000100,1
,5,中國時報,1085500120,25.035221,121.496276,come,0100000100,1
,6,捷運龍山寺站,1085500320,25.035143,121.500164,come,0100000100,1
,7,昆明街口,1085100020,25.0351,121.5024902,come,0100000100,1
,8,和平中華路口,1006800120,25.032422,121.5062725,come,0100000100,1
,9,植物園,1007000220,25.030056,121.509834,come,0100000100,1
,10,建國中學,1006600420,25.029178,121.513095,come,0100000100,1
,11,自來水西分處(寧波),1007500020,25.029828,121.5157,come,0100000100,1
,12,聯合醫院婦幼院區一,1007500340,25.029987,121.5180375,come,0100000100,1
,13,南昌家具街,1008400140,25.027364,121.520315,come,0100000100,1
,14,羅斯福金門街口,1008400340,25.024288,121.5243501,come,0100000100,1
,15,羅斯福浦城街口,1064600340,25.022418,121.5260858,come,0100000100,1
,16,捷運台電大樓站,1008900420,25.020027,121.528697,come,0100000100,1
,17,台電大樓,1067300240,25.017546,121.531379,come,0100000100,1
,18,捷運公館站,1009000140,25.014321,121.534722,come,0100000100,1
,19,公館,1067300020,25.012096,121.5385308,come,0100000100,1
,20,臺灣科技大學,1060700020,25.013453,121.5401488,come,0100000100,1
,21,臺大癌醫(基隆路),1067200720,25.015521,121.5425256,come,0100000100,1
,22,基隆長興街口,1067200320,25.017425,121.5448494,come,0100000100,1
,23,和平高中,1105200100,25.01963,121.54746,come,0100000100,1
,24,捷運六張犁站(基隆路),1067500200,25.023636,121.5519069,come,0100000100,1
,25,喬治商職,1105400100,25.02628,121.5549231,come,0100000100,1
,26,三興國小(臨江街觀光夜市),1105300100,25.028574,121.557017,come,0100000100,1
,27,吳興街口,1105200000,25.031596,121.5588464,come,0100000100,1
,28,世貿中心(莊敬),1104900140,25.031446,121.56127,come,0100000100,1
,29,景新里,1104900440,25.02923,121.5624103,come,0100000100,1
,30,臺北醫學大學,1105000340,25.028273,121.5632643,come,0100000100,1
,31,信義國中(莊敬),1105000240,25.027402,121.565724,come,0100000100,1
,32,吳興國小(莊敬),1105000020,25.026725,121.568122,come,0100000100,1
,33,松仁路,1104600240,25.024432,121.569585,come,0100000100,1
19分鐘,1,松仁路,1104600200,25.02453,121.5695997,come,0100000100,1
21分鐘,2,吳興國小(松仁),1104600000,25.026234,121.568628,come,0100000100,1
23分鐘,3,信義國中(莊敬),1105000200,25.027607,121.56521,come,0100000100,1
24分鐘,4,臺北醫學大學,1105000300,25.028241,121.5634888,come,0100000100,1
25分鐘,5,景新里,1104900400,25.029526,121.5623852,come,0100000100,1
27分鐘,6,世貿中心(莊敬),1104900100,25.031399,121.561326,come,0100000100,1
6分鐘,7,吳興街口,1105200040,25.031594,121.5586001,come,0100000100,1
7分鐘,8,三興國小(臨江街觀光夜市),1067700140,25.028215,121.556522,come,0100000100,1
進站中,9,喬治商職,1067500340,25.02633,121.5546403,come,0100000100,1
進站中,10,捷運六張犁站(基隆路),1067500240,25.023428,121.551345,come,0100000100,1
4分鐘,11,和平高中,1105200140,25.02024,121.54763,come,0100000100,1
6分鐘,12,基隆長興街口,1067200460,25.018512,121.5456371,come,0100000100,1
7分鐘,13,臺大癌醫(基隆路),1067200760,25.015713,121.5422472,come,0100000100,1
8分鐘,14,臺灣科技大學,1060700060,25.014151,121.540464,come,0100000100,1
9分鐘,15,公館,1067300060,25.012108,121.5380694,come,0100000100,1
進站中,16,捷運公館站,1009000160,25.015228,121.534086,come,0100000100,1
進站中,17,台電大樓,1067300200,25.018486,121.530566,come,0100000100,1
進站中,18,捷運台電大樓站,1064700300,25.02092,121.52803,come,0100000100,1
進站中,19,羅斯福浦城街口,1064600300,25.022311,121.5265002,come,0100000100,1
進站中,20,羅斯福金門街口,1008400300,25.024106,121.5246768,come,0100000100,1
進站中,21,捷運古亭站(羅斯福),1008400200,25.02678,121.52269,come,0100000100,1
4分鐘,22,捷運古亭站(杭州),1064200100,25.02886,121.5219375,come,0100000100,1
8分鐘,23,南福板溪(南昌公園),1007800060,25.02681,121.52053,come,0100000100,1
11分鐘,24,牯嶺街,1007800300,25.02814,121.51789,come,0100000100,1
11分鐘,25,自來水西分處(牯嶺),1007600100,25.029865,121.5166342,come,0100000100,1
12分鐘,26,牯嶺街小劇場,1007500200,25.03176,121.51518,come,0100000100,1
14分鐘,27,建國中學(歷史博物館),1006600560,25.031565,121.512879,come,0100000100,1
16分鐘,28,植物園,1007000260,25.03088,121.508711,come,0100000100,1
18分鐘,29,和平中華路口,1006600360,25.033191,121.50578,come,0100000100,1
20分鐘,30,昆明街口,1085100060,25.035341,121.5020082,come,0100000100,1
21分鐘,31,捷運龍山寺站,1085200360,25.03538,121.49971,come,0100000100,1
23分鐘,32,中國時報,1085500160,25.035454,121.4969752,come,0100000100,1
25分鐘,33,華江派出所,1088300140,25.034006,121.493016,come,0100000100,1
26分鐘,34,大理高中,1085800140,25.03162,121.490827,come,0100000100,1
27分鐘,35,人壽一村,1085800060,25.032073,121.4895177,come,0100000100,1
27分鐘,36,華江站,1085800360,25.032333,121.4889822,come,0100000100,1
預計21:00發車,1,富洲里,1117401420,25.109126,121.468652,go,0100000200,2
預計21:00發車,2,台北海大,1117400440,25.108188,121.4708548,go,0100000200,2
預計21:00發車,3,浮線,1117401140,25.106587,121.4725103,go,0100000200,2
預計21:00發車,4,富洲里九段,1117401540,25.10614,121.47427,go,0100000200,2
預計21:00發車,5,威靈廟,1117400840,25.105857,121.4762383,go,0100000200,2
預計21:00發車,6,下溪沙尾,1117400120,25.10581,121.47886,go,0100000200,2
預計21:00發車,7,建安新村,1117400920,25.105952,121.4812673,go,0100000200,2
預計21:00發車,8,富安國小,1117401320,25.105912,121.4831859,go,0100000200,2
預計21:00發車,9,富洲里八段,1117401640,25.10563,121.48448,go,0100000200,2
預計21:00發車,10,福安國中,1117401940,25.103238,121.4872193,go,0100000200,2
預計21:00發車,11,臨江園,1117402040,25.1017,121.48915,go,0100000200,2
預計21:00發車,12,地藏禪寺,1117400540,25.09956,121.49168,go,0100000200,2
預計21:00發車,13,下竹圍,1117200040,25.09816,121.49333,go,0100000200,2
預計21:00發車,14,福安區民活動中心,1117201040,25.09707,121.49461,go,0100000200,2
預計21:00發車,15,福安里,1117200940,25.09612,121.49561,go,0100000200,2
預計21:00發車,16,普濟堂,1117200840,25.094151,121.4974417,go,0100000200,2
預計21:00發車,17,社子國小二,1117200540,25.090017,121.5020824,go,0100000200,2
預計21:00發車,18,社子國小,1117200440,25.089646,121.5028759,go,0100000200,2
預計21:00發車,19,永倫里(南),1117200720,25.089298,121.504244,go,0100000200,2
預計21:00發車,20,社子派出所,1117200320,25.089332,121.5056145,go,0100000200,2
預計21:00發車,21,社子市場二,1117200240,25.088796,121.5081045,go,0100000200,2
預計21:00發車,22,社子市場,1117200140,25.088046,121.5087166,go,0100000200,2
預計21:00發車,23,葫蘆寺(葫蘆里),1117100340,25.085288,121.5095885,go,0100000200,2
預計21:00發車,24,葫蘆堵市場,1116501040,25.083075,121.5100276,go,0100000200,2
預計21:00發車,25,海光新村,1117100240,25.081321,121.5103891,go,0100000200,2
預計21:00發車,26,社子消防分隊,1116500340,25.079521,121.5109944,go,0100000200,2
預計21:00發車,27,污水處理廠,1037200040,25.07605,121.5118,go,0100000200,2
預計21:00發車,28,老師里,1037300020,25.072056,121.5115542,go,0100000200,2
預計21:00發車,29,酒泉街,1037300220,25.072041,121.5133789,go,0100000200,2
預計21:00發車,30,民族重慶路口,1036900040,25.068879,121.51371,go,0100000200,2
預計21:00發車,31,昌吉重慶路口,1036300240,25.06615,121.5136438,go,0100000200,2
預計21:00發車,32,捷運大橋頭站,1035900040,25.063324,121.5135163,go,0100000200,2
預計21:00發車,33,涼州重慶路口,1035800340,25.06098,121.5135093,go,0100000200,2
預計21:00發車,34,民生重慶路口,1035800140,25.05715,121.5136927,go,0100000200,2
預計21:00發車,35,朝陽公園(鈕釦街),1034500042,25.055504,121.514022,go,0100000200,2
預計21:00發車,36,圓環(南京),1035000220,25.053651,121.5157054,go,0100000200,2
預計21:00發車,37,臺北車站(承德),1034900240,25.050735,121.5167729,go,0100000200,2
預計21:00發車,38,臺北車站(鄭州),1035100420,25.048497,121.5171976,go,0100000200,2
預計21:00發車,39,行政院,1004100540,25.046484,121.5197596,go,0100000200,2
預計21:00發車,40,臺大醫院,1005500340,25.042497,121.5185042,go,0100000200,2
,1,捷運台大醫院站,1004801100,25.041927,121.5163535,go,0100000200,2
,2,臺北車站(青島),1004100820,25.044844,121.517704,go,0100000200,2
,3,行政院,1004100500,25.046578,121.5202398,go,0100000200,2
,4,臺北車站(鄭州),1035100460,25.048809,121.5174713,go,0100000200,2
,5,後車站,1034900100,25.050269,121.5135627,go,0100000200,2
,6,圓環(重慶),1035000300,25.052844,121.514207,go,0100000200,2
,7,民生重慶路口,1035600000,25.056766,121.5138258,go,0100000200,2
,8,涼州重慶路口,1035800300,25.060669,121.5135455,go,0100000200,2
,9,捷運大橋頭站,1035900000,25.062704,121.513583,go,0100000200,2
,10,昌吉重慶路口,1036300200,25.065794,121.5137575,go,0100000200,2
,11,民族重慶路口,1036900020,25.068586,121.5143308,go,0100000200,2
,12,蘭州國中,1036400420,25.068512,121.5161869,go,0100000200,2
,13,民族承德路口,1036500001,25.069322,121.518574,go,0100000200,2
,14,庫倫街,1036700360,25.072013,121.5176838,go,0100000200,2
,15,大龍峒保安宮,1036700060,25.07209,121.515621,go,0100000200,2
,16,酒泉重慶路口,1037300160,25.072042,121.514591,go,0100000200,2
,17,酒泉街,1037300260,25.072185,121.5135209,go,0100000200,2
,18,老師里,1037300060,25.072183,121.511508,go,0100000200,2
,19,污水處理廠,1037200000,25.075572,121.5118974,go,0100000200,2
,20,社子消防分隊,1116500300,25.079411,121.5112234,go,0100000200,2
,21,海光新村,1116500400,25.080711,121.5107623,go,0100000200,2
,22,葫蘆堵市場,1116501000,25.083057,121.5102329,go,0100000200,2
,23,葫蘆寺(葫蘆里),1117300200,25.086022,121.5096458,go,0100000200,2
,24,社子市場,1117200100,25.087505,121.5090743,go,0100000200,2
,25,社園里,1117200600,25.089056,121.5079873,go,0100000200,2
,26,社子派出所,1117200360,25.089599,121.5064251,go,0100000200,2
,27,永倫里(南),1117200760,25.089467,121.503968,go,0100000200,2
,28,社子國小,1117200400,25.089904,121.5025776,go,0100000200,2
,29,永倫里(延平),1117500100,25.091148,121.500682,go,0100000200,2
,30,洲美橋,1117500500,25.092658,121.4992219,go,0100000200,2
,31,中窟,1117400300,25.09534,121.49649,go,0100000200,2
,32,福安里,1117200900,25.09636,121.49544,go,0100000200,2
,33,福安區民活動中心,1117201000,25.09717,121.49455,go,0100000200,2
,34,下竹圍,1117200000,25.0982,121.49333,go,0100000200,2
,35,地藏禪寺,1117400500,25.099749,121.4915352,go,0100000200,2
,36,臨江園,1117402000,25.10163,121.48928,go,0100000200,2
,37,福安國中,1117401900,25.10333,121.48729,go,0100000200,2
,38,富洲里八段,1117401600,25.10576,121.48446,go,0100000200,2
,39,富安國小,1117401360,25.10596,121.4833,go,0100000200,2
,40,建安新村,1117400960,25.10601,121.48116,go,0100000200,2
,41,下溪沙尾,1117400160,25.10597,121.47884,go,0100000200,2
,42,威靈廟,1117400800,25.105957,121.4764835,go,0100000200,2
,43,富洲里九段,1117401500,25.106223,121.4742815,go,0100000200,2
,44,浮線,1117401100,25.106667,121.4725864,go,0100000200,2
,45,台北海大,1117400400,25.108525,121.4706761,go,0100000200,2
,46,富洲里,1117401460,25.109244,121.468346,go,0100000200,2
,1,富洲里,1117401420,25.109126,121.468652,come,0100000200,2
,2,台北海大,1117400440,25.108188,121.4708548,come,0100000200,2
,3,浮線,1117401140,25.106587,121.4725103,come,0100000200,2
,4,富洲里九段,1117401540,25.10614,121.47427,come,0100000200,2
,5,威靈廟,1117400840,25.105857,121.4762383,come,0100000200,2
,6,下溪沙尾,1117400120,25.10581,121.47886,come,0100000200,2
,7,建安新村,1117400920,25.105952,121.4812673,come,0100000200,2
,8,富安國小,1117401320,25.105912,121.4831859,come,0100000200,2
,9,富洲里八段,1117401640,25.10563,121.48448,come,0100000200,2
,10,福安國中,1117401940,25.103238,121.4872193,come,0100000200,2
,11,臨江園,1117402040,25.1017,121.48915,come,0100000200,2
,12,地藏禪寺,1117400540,25.09956,121.49168,come,0100000200,2
,13,下竹圍,1117200040,25.09816,121.49333,come,0100000200,2
,14,福安區民活動中心,1117201040,25.09707,121.49461,come,0100000200,2
,15,福安里,1117200940,25.09612,121.49561,come,0100000200,2
,16,普濟堂,1117200840,25.094151,121.4974417,come,0100000200,2
,17,社子國小二,1117200540,25.090017,121.5020824,come,0100000200,2
,18,社子國小,1117200440,25.089646,121.5028759,come,0100000200,2
,19,永倫里(南),1117200720,25.089298,121.504244,come,0100000200,2
,20,社子派出所,1117200320,25.089332,121.5056145,come,0100000200,2
,21,社子市場二,1117200240,25.088796,121.5081045,come,0100000200,2
,22,社子市場,1117200140,25.088046,121.5087166,come,0100000200,2
,23,葫蘆寺(葫蘆里),1117100340,25.085288,121.5095885,come,0100000200,2
,24,葫蘆堵市場,1116501040,25.083075,121.5100276,come,0100000200,2
,25,海光新村,1117100240,25.081321,121.5103891,come,0100000200,2
,26,社子消防分隊,1116500340,25.079521,121.5109944,come,0100000200,2
,27,污水處理廠,1037200040,25.07605,121.5118,come,0100000200,2
,28,老師里,1037300020,25.072056,121.5115542,come,0100000200,2
,29,酒泉街,1037300220,25.072041,121.5133789,come,0100000200,2
,30,民族重慶路口,1036900040,25.068879,121.51371,come,0100000200,2
,31,昌吉重慶路口,1036300240,25.06615,121.5136438,come,0100000200,2
,32,捷運大橋頭站,1035900040,25.063324,121.5135163,come,0100000200,2
,33,涼州重慶路口,1035800340,25.06098,121.5135093,come,0100000200,2
,34,民生重慶路口,1035800140,25.05715,121.5136927,come,0100000200,2
,35,朝陽公園(鈕釦街),1034500042,25.055504,121.514022,come,0100000200,2
,36,圓環(南京),1035000220,25.053651,121.5157054,come,0100000200,2
,37,臺北車站(承德),1034900240,25.050735,121.5167729,come,0100000200,2
,38,臺北車站(鄭州),1035100420,25.048497,121.5171976,come,0100000200,2
,39,行政院,1004100540,25.046484,121.5197596,come,0100000200,2
,40,臺大醫院,1005500340,25.042497,121.5185042,come,0100000200,2
預計21:00發車,1,捷運台大醫院站,1004801100,25.041927,121.5163535,come,0100000200,2
預計21:00發車,2,臺北車站(青島),1004100820,25.044844,121.517704,come,0100000200,2
預計21:00發車,3,行政院,1004100500,25.046578,121.5202398,come,0100000200,2
3分鐘,4,臺北車站(鄭州),1035100460,25.048809,121.5174713,come,0100000200,2
6分鐘,5,後車站,1034900100,25.050269,121.5135627,come,0100000200,2
7分鐘,6,圓環(重慶),1035000300,25.052844,121.514207,come,0100000200,2
11分鐘,7,民生重慶路口,1035600000,25.056766,121.5138258,come,0100000200,2
12分鐘,8,涼州重慶路口,1035800300,25.060669,121.5135455,come,0100000200,2
13分鐘,9,捷運大橋頭站,1035900000,25.062704,121.513583,come,0100000200,2
15分鐘,10,昌吉重慶路口,1036300200,25.065794,121.5137575,come,0100000200,2
18分鐘,11,民族重慶路口,1036900020,25.068586,121.5143308,come,0100000200,2
19分鐘,12,蘭州國中,1036400420,25.068512,121.5161869,come,0100000200,2
20分鐘,13,民族承德路口,1036500001,25.069322,121.518574,come,0100000200,2
21分鐘,14,庫倫街,1036700360,25.072013,121.5176838,come,0100000200,2
23分鐘,15,大龍峒保安宮,1036700060,25.07209,121.515621,come,0100000200,2
23分鐘,16,酒泉重慶路口,1037300160,25.072042,121.514591,come,0100000200,2
24分鐘,17,酒泉街,1037300260,25.072185,121.5135209,come,0100000200,2
27分鐘,18,老師里,1037300060,25.072183,121.511508,come,0100000200,2
29分鐘,19,污水處理廠,1037200000,25.075572,121.5118974,come,0100000200,2
30分鐘,20,社子消防分隊,1116500300,25.079411,121.5112234,come,0100000200,2
31分鐘,21,海光新村,1116500400,25.080711,121.5107623,come,0100000200,2
31分鐘,22,葫蘆堵市場,1116501000,25.083057,121.5102329,come,0100000200,2
33分鐘,23,葫蘆寺(葫蘆里),1117300200,25.086022,121.5096458,come,0100000200,2
35分鐘,24,社子市場,1117200100,25.087505,121.5090743,come,0100000200,2
36分鐘,25,社園里,1117200600,25.089056,121.5079873,come,0100000200,2
38分鐘,26,社子派出所,1117200360,25.089599,121.5064251,come,0100000200,2
39分鐘,27,永倫里(南),1117200760,25.089467,121.503968,come,0100000200,2
40分鐘,28,社子國小,1117200400,25.089904,121.5025776,come,0100000200,2
40分鐘,29,永倫里(延平),1117500100,25.091148,121.500682,come,0100000200,2
42分鐘,30,洲美橋,1117500500,25.092658,121.4992219,come,0100000200,2
43分鐘,31,中窟,1117400300,25.09534,121.49649,come,0100000200,2
44分鐘,32,福安里,1117200900,25.09636,121.49544,come,0100000200,2
44分鐘,33,福安區民活動中心,1117201000,25.09717,121.49455,come,0100000200,2
45分鐘,34,下竹圍,1117200000,25.0982,121.49333,come,0100000200,2
46分鐘,35,地藏禪寺,1117400500,25.099749,121.4915352,come,0100000200,2
46分鐘,36,臨江園,1117402000,25.10163,121.48928,come,0100000200,2
47分鐘,37,福安國中,1117401900,25.10333,121.48729,come,0100000200,2
48分鐘,38,富洲里八段,1117401600,25.10576,121.48446,come,0100000200,2
48分鐘,39,富安國小,1117401360,25.10596,121.4833,come,0100000200,2
49分鐘,40,建安新村,1117400960,25.10601,121.48116,come,0100000200,2
49分鐘,41,下溪沙尾,1117400160,25.10597,121.47884,come,0100000200,2
50分鐘,42,威靈廟,1117400800,25.105957,121.4764835,come,0100000200,2
50分鐘,43,富洲里九段,1117401500,25.106223,121.4742815,come,0100000200,2
51分鐘,44,浮線,1117401100,25.106667,121.4725864,come,0100000200,2
51分鐘,45,台北海大,1117400400,25.108525,121.4706761,come,0100000200,2
52分鐘,46,富洲里,1117401460,25.109244,121.468346,come,0100000200,2
尚未發車,1,中和保養廠,2355800420,25.002543,121.492374,go,0100000500,5
尚未發車,2,家美工業區,2355700720,25.002035,121.493889,go,0100000500,5
尚未發車,3,捷運中和站(中山路),2355701020,25.002211,121.495441,go,0100000500,5
尚未發車,4,一江新村,2355800020,25.002407,121.498123,go,0100000500,5
尚未發車,5,中和農會(中和路),2357500140,25.001903,121.499736,go,0100000500,5
尚未發車,6,中和廟口,2357500220,25.000553,121.500968,go,0100000500,5
尚未發車,7,中和派出所,2357500020,24.999695,121.5027697,go,0100000500,5
尚未發車,8,南山高中,2357500620,24.999655,121.5048263,go,0100000500,5
尚未發車,9,雙和里,2357500720,24.999571,121.50739,go,0100000500,5
尚未發車,10,華泰新城(宜安路),2357600520,24.998841,121.508875,go,0100000500,5
尚未發車,11,宜安路,2357600220,24.997389,121.5109042,go,0100000500,5
尚未發車,12,安平路,2357200000,24.99767,121.51196,go,0100000500,5
尚未發車,13,潭墘,2357200300,24.99948,121.51347,go,0100000500,5
尚未發車,14,823紀念公園,2358200970,25.001909,121.5151052,go,0100000500,5
尚未發車,15,永安市場,2345500500,25.00506,121.51445,go,0100000500,5
尚未發車,16,自強街口,2344700300,25.007558,121.514584,go,0100000500,5
尚未發車,17,樂華夜市,2344500800,25.008563,121.5141176,go,0100000500,5
進站中,18,捷運頂溪站,2344500600,25.01258,121.515273,go,0100000500,5
5分鐘,19,中正橋頭,2344500100,25.016042,121.5162239,go,0100000500,5
6分鐘,20,重慶南路三段(中正橋),1007700000,25.024254,121.5168988,go,0100000500,5
9分鐘,21,福州街,1007800500,25.028027,121.517445,go,0100000500,5
10分鐘,22,自來水西分處(牯嶺),1007600100,25.029865,121.5166342,go,0100000500,5
11分鐘,23,南昌路,1007500101,25.031219,121.517248,go,0100000500,5
13分鐘,24,南門,1007400100,25.033381,121.51568,go,0100000500,5
14分鐘,25,一女中(公園),1004800000,25.036828,121.5151365,go,0100000500,5
16分鐘,26,捷運台大醫院站,1004801100,25.041927,121.5163535,go,0100000500,5
18分鐘,27,臺北車站(青島),1004100820,25.044844,121.517704,go,0100000500,5
21分鐘,28,行政院,1004100500,25.046578,121.5202398,go,0100000500,5
進站中,29,中山市場,1044400000,25.050519,121.522081,go,0100000500,5
進站中,30,南京林森路口,1045400120,25.052069,121.5250604,go,0100000500,5
3分鐘,31,南京吉林路口,1045700220,25.052007,121.529855,go,0100000500,5
4分鐘,32,捷運松江南京站,1045700420,25.051969,121.5327305,go,0100000500,5
8分鐘,33,長春松江路口,1045900300,25.054536,121.5331386,go,0100000500,5
11分鐘,34,民生松江路口,1048300320,25.057791,121.535046,go,0100000500,5
12分鐘,35,合江街口,1047800020,25.057724,121.5381394,go,0100000500,5
14分鐘,36,臺北大學(臺北校區),1048000220,25.05774,121.54274,go,0100000500,5
16分鐘,37,捷運中山國中站,1047600500,25.060855,121.544405,go,0100000500,5
18分鐘,38,民權龍江路口,1047600460,25.062395,121.5412752,go,0100000500,5
進站中,39,民權建國路口,1047700060,25.062483,121.53746,go,0100000500,5
進站中,40,民權松江路口,1048300060,25.062524,121.5334388,go,0100000500,5
,1,捷運行天宮站(松江路),1046800240,25.060535,121.5331063,go,0100000500,5
,2,長春松江路口,1048500040,25.055006,121.533011,go,0100000500,5
,3,南京吉林路口,1045700260,25.052112,121.5303325,go,0100000500,5
,4,南京林森路口,1045400160,25.052167,121.5257174,go,0100000500,5
,5,中山市場,1044400040,25.051264,121.5220211,go,0100000500,5
,6,行政院,1004100540,25.046484,121.5197596,go,0100000500,5
,7,臺北車站(公園),1004700340,25.043929,121.516775,go,0100000500,5
,8,捷運台大醫院站,1004600040,25.041935,121.5161481,go,0100000500,5
,9,一女中(公園),1004800040,25.038007,121.5149627,go,0100000500,5
,10,市立大學附小,1004800540,25.036462,121.5149763,go,0100000500,5
,11,南門,1006600640,25.033565,121.515375,go,0100000500,5
,12,寧波重慶路口,1007600240,25.028886,121.5153917,go,0100000500,5
,13,重慶南路三段(中正橋),1007100040,25.024804,121.516528,go,0100000500,5
,14,捷運頂溪站,2344300940,25.01443,121.5155769,go,0100000500,5
,15,中興街口,2344400140,25.011595,121.5147464,go,0100000500,5
,16,樂華夜市,2344500840,25.00839,121.51386,go,0100000500,5
,17,永和路口,2344500440,25.005687,121.5128613,go,0100000500,5
,18,永安市場(永貞路),2357400140,25.003661,121.513414,go,0100000500,5
,19,中安街,2357400040,25.002081,121.512357,go,0100000500,5
,20,安平派出所,2357400740,25.000769,121.511211,go,0100000500,5
,21,安平路,2357600140,24.997722,121.511791,go,0100000500,5
,22,宜安路,2357600260,24.997295,121.5112044,go,0100000500,5
,23,華泰新城(宜安路),2357600560,24.998949,121.509048,go,0100000500,5
,24,雙和里,2357500760,24.99973,121.5068521,go,0100000500,5
,25,南山高中,2357500660,24.999775,121.505547,go,0100000500,5
,26,中和派出所,2357500060,24.999855,121.5028195,go,0100000500,5
,27,中和廟口,2357500260,25.000814,121.5009077,go,0100000500,5
,28,中和農會(中和路),2357500100,25.001862,121.499868,go,0100000500,5
,29,一江新村,2355800060,25.002636,121.498247,go,0100000500,5
,30,捷運中和站(中山路),2355701060,25.002436,121.496157,go,0100000500,5
,31,家美工業區,2355700760,25.00229,121.493465,go,0100000500,5
,32,中和保養廠,2355700360,25.003079,121.491807,go,0100000500,5
,1,中和保養廠,2355800420,25.002543,121.492374,come,0100000500,5
,2,家美工業區,2355700720,25.002035,121.493889,come,0100000500,5
,3,捷運中和站(中山路),2355701020,25.002211,121.495441,come,0100000500,5
,4,一江新村,2355800020,25.002407,121.498123,come,0100000500,5
,5,中和農會(中和路),2357500140,25.001903,121.499736,come,0100000500,5
,6,中和廟口,2357500220,25.000553,121.500968,come,0100000500,5
,7,中和派出所,2357500020,24.999695,121.5027697,come,0100000500,5
,8,南山高中,2357500620,24.999655,121.5048263,come,0100000500,5
,9,雙和里,2357500720,24.999571,121.50739,come,0100000500,5
,10,華泰新城(宜安路),2357600520,24.998841,121.508875,come,0100000500,5
,11,宜安路,2357600220,24.997389,121.5109042,come,0100000500,5
,12,安平路,2357200000,24.99767,121.51196,come,0100000500,5
,13,潭墘,2357200300,24.99948,121.51347,come,0100000500,5
,14,823紀念公園,2358200970,25.001909,121.5151052,come,0100000500,5
,15,永安市場,2345500500,25.00506,121.51445,come,0100000500,5
,16,自強街口,2344700300,25.007558,121.514584,come,0100000500,5
,17,樂華夜市,2344500800,25.008563,121.5141176,come,0100000500,5
,18,捷運頂溪站,2344500600,25.01258,121.515273,come,0100000500,5
,19,中正橋頭,2344500100,25.016042,121.5162239,come,0100000500,5
,20,重慶南路三段(中正橋),1007700000,25.024254,121.5168988,come,0100000500,5
,21,福州街,1007800500,25.028027,121.517445,come,0100000500,5
,22,自來水西分處(牯嶺),1007600100,25.029865,121.5166342,come,0100000500,5
,23,南昌路,1007500101,25.031219,121.517248,come,0100000500,5
,24,南門,1007400100,25.033381,121.51568,come,0100000500,5
,25,一女中(公園),1004800000,25.036828,121.5151365,come,0100000500,5
,26,捷運台大醫院站,1004801100,25.041927,121.5163535,come,0100000500,5
,27,臺北車站(青島),1004100820,25.044844,121.517704,come,0100000500,5
,28,行政院,1004100500,25.046578,121.5202398,come,0100000500,5
,29,中山市場,1044400000,25.050519,121.522081,come,0100000500,5
,30,南京林森路口,1045400120,25.052069,121.5250604,come,0100000500,5
,31,南京吉林路口,1045700220,25.052007,121.529855,come,0100000500,5
,32,捷運松江南京站,1045700420,25.051969,121.5327305,come,0100000500,5
,33,長春松江路口,1045900300,25.054536,121.5331386,come,0100000500,5
,34,民生松江路口,1048300320,25.057791,121.535046,come,0100000500,5
,35,合江街口,1047800020,25.057724,121.5381394,come,0100000500,5
,36,臺北大學(臺北校區),1048000220,25.05774,121.54274,come,0100000500,5
,37,捷運中山國中站,1047600500,25.060855,121.544405,come,0100000500,5
,38,民權龍江路口,1047600460,25.062395,121.5412752,come,0100000500,5
,39,民權建國路口,1047700060,25.062483,121.53746,come,0100000500,5
,40,民權松江路口,1048300060,25.062524,121.5334388,come,0100000500,5
3分鐘,1,捷運行天宮站(松江路),1046800240,25.060535,121.5331063,come,0100000500,5
4分鐘,2,長春松江路口,1048500040,25.055006,121.533011,come,0100000500,5
7分鐘,3,南京吉林路口,1045700260,25.052112,121.5303325,come,0100000500,5
8分鐘,4,南京林森路口,1045400160,25.052167,121.5257174,come,0100000500,5
12分鐘,5,中山市場,1044400040,25.051264,121.5220211,come,0100000500,5
14分鐘,6,行政院,1004100540,25.046484,121.5197596,come,0100000500,5
18分鐘,7,臺北車站(公園),1004700340,25.043929,121.516775,come,0100000500,5
20分鐘,8,捷運台大醫院站,1004600040,25.041935,121.5161481,come,0100000500,5
21分鐘,9,一女中(公園),1004800040,25.038007,121.5149627,come,0100000500,5
22分鐘,10,市立大學附小,1004800540,25.036462,121.5149763,come,0100000500,5
進站中,11,南門,1006600640,25.033565,121.515375,come,0100000500,5
6分鐘,12,寧波重慶路口,1007600240,25.028886,121.5153917,come,0100000500,5
7分鐘,13,重慶南路三段(中正橋),1007100040,25.024804,121.516528,come,0100000500,5
11分鐘,14,捷運頂溪站,2344300940,25.01443,121.5155769,come,0100000500,5
13分鐘,15,中興街口,2344400140,25.011595,121.5147464,come,0100000500,5
15分鐘,16,樂華夜市,2344500840,25.00839,121.51386,come,0100000500,5
進站中,17,永和路口,2344500440,25.005687,121.5128613,come,0100000500,5
進站中,18,永安市場(永貞路),2357400140,25.003661,121.513414,come,0100000500,5
3分鐘,19,中安街,2357400040,25.002081,121.512357,come,0100000500,5
4分鐘,20,安平派出所,2357400740,25.000769,121.511211,come,0100000500,5
6分鐘,21,安平路,2357600140,24.997722,121.511791,come,0100000500,5
7分鐘,22,宜安路,2357600260,24.997295,121.5112044,come,0100000500,5
8分鐘,23,華泰新城(宜安路),2357600560,24.998949,121.509048,come,0100000500,5
9分鐘,24,雙和里,2357500760,24.99973,121.5068521,come,0100000500,5
9分鐘,25,南山高中,2357500660,24.999775,121.505547,come,0100000500,5
10分鐘,26,中和派出所,2357500060,24.999855,121.5028195,come,0100000500,5
12分鐘,27,中和廟口,2357500260,25.000814,121.5009077,come,0100000500,5
12分鐘,28,中和農會(中和路),2357500100,25.001862,121.499868,come,0100000500,5
15分鐘,29,一江新村,2355800060,25.002636,121.498247,come,0100000500,5
15分鐘,30,捷運中和站(中山路),2355701060,25.002436,121.496157,come,0100000500,5
進站中,31,家美工業區,2355700760,25.00229,121.493465,come,0100000500,5
進站中,32,中和保養廠,2355700360,25.003079,121.491807,come,0100000500,5
進站中,1,捷運新店站(新店路),2314700841,24.958392,121.53755,go,0400000800,8
3分鐘,2,溪頭,2315302500,24.960831,121.5319036,go,0400000800,8
5分鐘,3,大坪頂,2315300200,24.961329,121.5298939,go,0400000800,8
5分鐘,4,頂城,2315302300,24.961886,121.528356,go,0400000800,8
5分鐘,5,胡璉故居紀念館,2315300060,24.963037,121.526281,go,0400000800,8
6分鐘,6,下城社區,2315300160,24.963596,121.5239545,go,0400000800,8
7分鐘,7,安華路口,2315301260,24.963907,121.5212082,go,0400000800,8
9分鐘,8,輕軌安康站,2315900400,24.96503,121.517257,go,0400000800,8
10分鐘,9,及人中學,2315900100,24.967108,121.518062,go,0400000800,8
11分鐘,10,十四份,2315900000,24.969329,121.518795,go,0400000800,8
12分鐘,11,光華街口,2315900300,24.970794,121.51914,go,0400000800,8
13分鐘,12,輕軌陽光運動公園站,2315900700,24.972839,121.519852,go,0400000800,8
13分鐘,13,石頭厝,2315900200,24.974308,121.51912,go,0400000800,8
14分鐘,14,安和路二段,2315900600,24.976061,121.517372,go,0400000800,8
15分鐘,15,陽光運動公園(新店花市),2315901000,24.977253,121.5167886,go,0400000800,8
17分鐘,16,永平里,2315900500,24.981146,121.517416,go,0400000800,8
18分鐘,17,輕軌新和國小站(水工大樓),2315900800,24.983806,121.517953,go,0400000800,8
20分鐘,18,新和國小,2315901100,24.985335,121.517283,go,0400000800,8
22分鐘,19,三介廟,2357700000,24.988375,121.513308,go,0400000800,8
23分鐘,20,景新街,2358200700,24.989999,121.512485,go,0400000800,8
27分鐘,21,欣欣向榮(景新街),2357200470,24.995152,121.507206,go,0400000800,8
29分鐘,22,景新街口,2357100440,24.995927,121.505574,go,0400000800,8
進站中,23,捷運景安站,2357600340,24.994596,121.505201,go,0400000800,8
,1,中和教會,2357700120,24.992776,121.509186,go,0400000800,8
,2,景新街,2358200740,24.989796,121.512387,go,0400000800,8
,3,三介廟,2356900040,24.987999,121.5132354,go,0400000800,8
,4,新和國小,2315901140,24.98554,121.516668,go,0400000800,8
,5,輕軌新和國小站(水工大樓),2315900840,24.983114,121.517819,go,0400000800,8
,6,永平里,2315900540,24.981678,121.5175586,go,0400000800,8
,7,陽光運動公園(新店花市),2315901040,24.977353,121.5165771,go,0400000800,8
,8,安和路二段,2315900640,24.975951,121.517269,go,0400000800,8
,9,石頭厝,2315900240,24.974109,121.5188677,go,0400000800,8
,10,輕軌陽光運動公園站,2315900740,24.972781,121.5195205,go,0400000800,8
,11,光華街口,2315900340,24.97032,121.51876,go,0400000800,8
,12,十四份,2315900040,24.96923,121.51843,go,0400000800,8
,13,及人中學,2315900140,24.967302,121.5177866,go,0400000800,8
,14,輕軌安康站,2315900441,24.96515,121.51705,go,0400000800,8
,15,光華新村(安康路),2315300820,24.963936,121.517942,go,0400000800,8
,16,安華路口,2315301220,24.963705,121.5213653,go,0400000800,8
,17,下城社區,2315300120,24.963473,121.5235251,go,0400000800,8
,18,胡璉故居紀念館,2315300020,24.962917,121.52598,go,0400000800,8
,19,頂城,2315302340,24.961725,121.528339,go,0400000800,8
,20,大坪頂,2315300240,24.961041,121.530152,go,0400000800,8
,21,溪頭,2315302540,24.960256,121.532361,go,0400000800,8
,22,碧潭橋頭,2314701600,24.963158,121.53982,go,0400000800,8
,23,檳榔路,2314702000,24.965001,121.5405875,go,0400000800,8
,24,捷運新店區公所站(北新),2314700900,24.967638,121.5416161,go,0400000800,8
,25,中正路,2314600022,24.969823,121.54459,go,0400000800,8
,26,中興中正路口,2314600061,24.96884,121.54556,go,0400000800,8
,27,五峰國中,2314600440,24.966834,121.544338,go,0400000800,8
,28,中興路一段,2314700040,24.963848,121.5421083,go,0400000800,8
,29,舊郵政館,2314601340,24.961682,121.540751,go,0400000800,8
,30,捷運新店站(新店路),2314700841,24.958392,121.53755,go,0400000800,8
,1,捷運新店站(新店路),2314700841,24.958392,121.53755,come,0400000800,8
,2,溪頭,2315302500,24.960831,121.5319036,come,0400000800,8
,3,大坪頂,2315300200,24.961329,121.5298939,come,0400000800,8
,4,頂城,2315302300,24.961886,121.528356,come,0400000800,8
,5,胡璉故居紀念館,2315300060,24.963037,121.526281,come,0400000800,8
,6,下城社區,2315300160,24.963596,121.5239545,come,0400000800,8
,7,安華路口,2315301260,24.963907,121.5212082,come,0400000800,8
,8,輕軌安康站,2315900400,24.96503,121.517257,come,0400000800,8
,9,及人中學,2315900100,24.967108,121.518062,come,0400000800,8
,10,十四份,2315900000,24.969329,121.518795,come,0400000800,8
,11,光華街口,2315900300,24.970794,121.51914,come,0400000800,8
,12,輕軌陽光運動公園站,2315900700,24.972839,121.519852,come,0400000800,8
,13,石頭厝,2315900200,24.974308,121.51912,come,0400000800,8
,14,安和路二段,2315900600,24.976061,121.517372,come,0400000800,8
,15,陽光運動公園(新店花市),2315901000,24.977253,121.5167886,come,0400000800,8
,16,永平里,2315900500,24.981146,121.517416,come,0400000800,8
,17,輕軌新和國小站(水工大樓),2315900800,24.983806,121.517953,come,0400000800,8
,18,新和國小,2315901100,24.985335,121.517283,come,0400000800,8
,19,三介廟,2357700000,24.988375,121.513308,come,0400000800,8
,20,景新街,2358200700,24.989999,121.512485,come,0400000800,8
,21,欣欣向榮(景新街),2357200470,24.995152,121.507206,come,0400000800,8
,22,景新街口,2357100440,24.995927,121.505574,come,0400000800,8
,23,捷運景安站,2357600340,24.994596,121.505201,come,0400000800,8
4分鐘,1,中和教會,2357700120,24.992776,121.509186,come,0400000800,8
8分鐘,2,景新街,2358200740,24.989796,121.512387,come,0400000800,8
9分鐘,3,三介廟,2356900040,24.987999,121.5132354,come,0400000800,8
11分鐘,4,新和國小,2315901140,24.98554,121.516668,come,0400000800,8
12分鐘,5,輕軌新和國小站(水工大樓),2315900840,24.983114,121.517819,come,0400000800,8
14分鐘,6,永平里,2315900540,24.981678,121.5175586,come,0400000800,8
15分鐘,7,陽光運動公園(新店花市),2315901040,24.977353,121.5165771,come,0400000800,8
16分鐘,8,安和路二段,2315900640,24.975951,121.517269,come,0400000800,8
17分鐘,9,石頭厝,2315900240,24.974109,121.5188677,come,0400000800,8
18分鐘,10,輕軌陽光運動公園站,2315900740,24.972781,121.5195205,come,0400000800,8
19分鐘,11,光華街口,2315900340,24.97032,121.51876,come,0400000800,8
19分鐘,12,十四份,2315900040,24.96923,121.51843,come,0400000800,8
20分鐘,13,及人中學,2315900140,24.967302,121.5177866,come,0400000800,8
21分鐘,14,輕軌安康站,2315900441,24.96515,121.51705,come,0400000800,8
23分鐘,15,光華新村(安康路),2315300820,24.963936,121.517942,come,0400000800,8
24分鐘,16,安華路口,2315301220,24.963705,121.5213653,come,0400000800,8
25分鐘,17,下城社區,2315300120,24.963473,121.5235251,come,0400000800,8
25分鐘,18,胡璉故居紀念館,2315300020,24.962917,121.52598,come,0400000800,8
26分鐘,19,頂城,2315302340,24.961725,121.528339,come,0400000800,8
26分鐘,20,大坪頂,2315300240,24.961041,121.530152,come,0400000800,8
27分鐘,21,溪頭,2315302540,24.960256,121.532361,come,0400000800,8
30分鐘,22,碧潭橋頭,2314701600,24.963158,121.53982,come,0400000800,8
31分鐘,23,檳榔路,2314702000,24.965001,121.5405875,come,0400000800,8
32分鐘,24,捷運新店區公所站(北新),2314700900,24.967638,121.5416161,come,0400000800,8
34分鐘,25,中正路,2314600022,24.969823,121.54459,come,0400000800,8
35分鐘,26,中興中正路口,2314600061,24.96884,121.54556,come,0400000800,8
36分鐘,27,五峰國中,2314600440,24.966834,121.544338,come,0400000800,8
37分鐘,28,中興路一段,2314700040,24.963848,121.5421083,come,0400000800,8
38分鐘,29,舊郵政館,2314601340,24.961682,121.540751,come,0400000800,8
40分鐘,30,捷運新店站(新店路),2314700841,24.958392,121.53755,come,0400000800,8
尚未發車,1,社子國小,1117200440,25.089646,121.5028759,go,0100000900,9
進站中,2,永倫里(南),1117200720,25.089298,121.504244,go,0100000900,9
進站中,3,社子派出所,1117200320,25.089332,121.5056145,go,0100000900,9
進站中,4,社子市場二,1117200240,25.088796,121.5081045,go,0100000900,9
進站中,5,社子市場,1117200140,25.088046,121.5087166,go,0100000900,9
3分鐘,6,葫蘆寺(葫蘆里),1117100340,25.085288,121.5095885,go,0100000900,9
3分鐘,7,葫蘆堵市場,1116501040,25.083075,121.5100276,go,0100000900,9
4分鐘,8,海光新村,1117100240,25.081321,121.5103891,go,0100000900,9
5分鐘,9,社子消防分隊,1116500340,25.079521,121.5109944,go,0100000900,9
6分鐘,10,污水處理廠,1037200040,25.07605,121.5118,go,0100000900,9
7分鐘,11,老師里,1037300020,25.072056,121.5115542,go,0100000900,9
8分鐘,12,酒泉街,1037300220,25.072041,121.5133789,go,0100000900,9
10分鐘,13,民族重慶路口,1036900040,25.068879,121.51371,go,0100000900,9
11分鐘,14,昌吉重慶路口,1036300240,25.06615,121.5136438,go,0100000900,9
12分鐘,15,捷運大橋頭站,1035900040,25.063324,121.5135163,go,0100000900,9
14分鐘,16,涼州重慶路口,1034800360,25.060795,121.513088,go,0100000900,9
15分鐘,17,保安街口,1034600140,25.05983,121.5113241,go,0100000900,9
16分鐘,18,民生西路口(大稻埕碼頭),1034400040,25.057928,121.5114003,go,0100000900,9
18分鐘,19,南京西路口(鈕釦街),1034400140,25.054547,121.5116211,go,0100000900,9
19分鐘,20,南京西路口(塔城),1034300440,25.05265,121.51031,go,0100000900,9
20分鐘,21,聯合醫院中興院區(塔城),1034100640,25.051335,121.5103985,go,0100000900,9
22分鐘,22,捷運北門站,1034100140,25.049002,121.510134,go,0100000900,9
25分鐘,23,中華路北站,1084300041,25.044584,121.508765,go,0100000900,9
26分鐘,24,捷運西門站,1084600340,25.041649,121.5078873,go,0100000900,9
28分鐘,25,小南門,1085000340,25.038008,121.5068125,go,0100000900,9
31分鐘,26,龍山國中,1084900640,25.035844,121.5038948,go,0100000900,9
32分鐘,27,昆明街口,1085100060,25.035341,121.5020082,go,0100000900,9
34分鐘,28,龍山寺(康定),1085200700,25.036314,121.501464,go,0100000900,9
,1,祖師廟(康定),1084900400,25.039681,121.5019792,go,0100000900,9
,2,長沙街,1085000220,25.040609,121.5056466,go,0100000900,9
,3,捷運西門站,1084600300,25.04173,121.5082859,go,0100000900,9
,4,中華路北站,1004200200,25.045696,121.5093807,go,0100000900,9
,5,捷運北門站,1034100601,25.050609,121.5106101,go,0100000900,9
,6,南京西路口(塔城),1034300400,25.052852,121.5104624,go,0100000900,9
,7,南京西路口(鈕釦街),1034600200,25.054427,121.5117973,go,0100000900,9
,8,民生西路口(大稻埕碼頭),1034600000,25.057441,121.5116168,go,0100000900,9
,9,保安街口,1034800100,25.05984,121.5114724,go,0100000900,9
,10,涼州重慶路口,1035800320,25.060697,121.512933,go,0100000900,9
,11,捷運大橋頭站,1035900000,25.062704,121.513583,go,0100000900,9
,12,昌吉重慶路口,1036300200,25.065794,121.5137575,go,0100000900,9
,13,民族重慶路口,1036900020,25.068586,121.5143308,go,0100000900,9
,14,蘭州國中,1036400420,25.068512,121.5161869,go,0100000900,9
,15,民族承德路口,1036500001,25.069322,121.518574,go,0100000900,9
,16,庫倫街,1036700360,25.072013,121.5176838,go,0100000900,9
,17,大龍峒保安宮,1036700060,25.07209,121.515621,go,0100000900,9
,18,酒泉重慶路口,1037300160,25.072042,121.514591,go,0100000900,9
,19,酒泉街,1037300260,25.072185,121.5135209,go,0100000900,9
,20,老師里,1037300060,25.072183,121.511508,go,0100000900,9
,21,污水處理廠,1037200000,25.075572,121.5118974,go,0100000900,9
,22,社子消防分隊,1116500300,25.079411,121.5112234,go,0100000900,9
,23,海光新村,1116500400,25.080711,121.5107623,go,0100000900,9
,24,葫蘆堵市場,1116501000,25.083057,121.5102329,go,0100000900,9
,25,葫蘆寺(葫蘆里),1117300200,25.086022,121.5096458,go,0100000900,9
,26,社子市場,1117200100,25.087505,121.5090743,go,0100000900,9
,27,社園里,1117200600,25.089056,121.5079873,go,0100000900,9
,28,社子派出所,1117200360,25.089599,121.5064251,go,0100000900,9
,29,永倫里(南),1117200760,25.089467,121.503968,go,0100000900,9
,30,社子國小,1117200400,25.089904,121.5025776,go,0100000900,9
,1,社子國小,1117200440,25.089646,121.5028759,come,0100000900,9
,2,永倫里(南),1117200720,25.089298,121.504244,come,0100000900,9
,3,社子派出所,1117200320,25.089332,121.5056145,come,0100000900,9
,4,社子市場二,1117200240,25.088796,121.5081045,come,0100000900,9
,5,社子市場,1117200140,25.088046,121.5087166,come,0100000900,9
,6,葫蘆寺(葫蘆里),1117100340,25.085288,121.5095885,come,0100000900,9
,7,葫蘆堵市場,1116501040,25.083075,121.5100276,come,0100000900,9
,8,海光新村,1117100240,25.081321,121.5103891,come,0100000900,9
,9,社子消防分隊,1116500340,25.079521,121.5109944,come,0100000900,9
,10,污水處理廠,1037200040,25.07605,121.5118,come,0100000900,9
,11,老師里,1037300020,25.072056,121.5115542,come,0100000900,9
,12,酒泉街,1037300220,25.072041,121.5133789,come,0100000900,9
,13,民族重慶路口,1036900040,25.068879,121.51371,come,0100000900,9
,14,昌吉重慶路口,1036300240,25.06615,121.5136438,come,0100000900,9
,15,捷運大橋頭站,1035900040,25.063324,121.5135163,come,0100000900,9
,16,涼州重慶路口,1034800360,25.060795,121.513088,come,0100000900,9
,17,保安街口,1034600140,25.05983,121.5113241,come,0100000900,9
,18,民生西路口(大稻埕碼頭),1034400040,25.057928,121.5114003,come,0100000900,9
,19,南京西路口(鈕釦街),1034400140,25.054547,121.5116211,come,0100000900,9
,20,南京西路口(塔城),1034300440,25.05265,121.51031,come,0100000900,9
,21,聯合醫院中興院區(塔城),1034100640,25.051335,121.5103985,come,0100000900,9
,22,捷運北門站,1034100140,25.049002,121.510134,come,0100000900,9
,23,中華路北站,1084300041,25.044584,121.508765,come,0100000900,9
,24,捷運西門站,1084600340,25.041649,121.5078873,come,0100000900,9
,25,小南門,1085000340,25.038008,121.5068125,come,0100000900,9
,26,龍山國中,1084900640,25.035844,121.5038948,come,0100000900,9
,27,昆明街口,1085100060,25.035341,121.5020082,come,0100000900,9
,28,龍山寺(康定),1085200700,25.036314,121.501464,come,0100000900,9
36分鐘,1,祖師廟(康定),1084900400,25.039681,121.5019792,come,0100000900,9
38分鐘,2,長沙街,1085000220,25.040609,121.5056466,come,0100000900,9
40分鐘,3,捷運西門站,1084600300,25.04173,121.5082859,come,0100000900,9
進站中,4,中華路北站,1004200200,25.045696,121.5093807,come,0100000900,9
3分鐘,5,捷運北門站,1034100601,25.050609,121.5106101,come,0100000900,9
5分鐘,6,南京西路口(塔城),1034300400,25.052852,121.5104624,come,0100000900,9
6分鐘,7,南京西路口(鈕釦街),1034600200,25.054427,121.5117973,come,0100000900,9
7分鐘,8,民生西路口(大稻埕碼頭),1034600000,25.057441,121.5116168,come,0100000900,9
9分鐘,9,保安街口,1034800100,25.05984,121.5114724,come,0100000900,9
10分鐘,10,涼州重慶路口,1035800320,25.060697,121.512933,come,0100000900,9
12分鐘,11,捷運大橋頭站,1035900000,25.062704,121.513583,come,0100000900,9
14分鐘,12,昌吉重慶路口,1036300200,25.065794,121.5137575,come,0100000900,9
16分鐘,13,民族重慶路口,1036900020,25.068586,121.5143308,come,0100000900,9
17分鐘,14,蘭州國中,1036400420,25.068512,121.5161869,come,0100000900,9
18分鐘,15,民族承德路口,1036500001,25.069322,121.518574,come,0100000900,9
3分鐘,16,庫倫街,1036700360,25.072013,121.5176838,come,0100000900,9
6分鐘,17,大龍峒保安宮,1036700060,25.07209,121.515621,come,0100000900,9
7分鐘,18,酒泉重慶路口,1037300160,25.072042,121.514591,come,0100000900,9
9分鐘,19,酒泉街,1037300260,25.072185,121.5135209,come,0100000900,9
10分鐘,20,老師里,1037300060,25.072183,121.511508,come,0100000900,9
12分鐘,21,污水處理廠,1037200000,25.075572,121.5118974,come,0100000900,9
13分鐘,22,社子消防分隊,1116500300,25.079411,121.5112234,come,0100000900,9
14分鐘,23,海光新村,1116500400,25.080711,121.5107623,come,0100000900,9
15分鐘,24,葫蘆堵市場,1116501000,25.083057,121.5102329,come,0100000900,9
16分鐘,25,葫蘆寺(葫蘆里),1117300200,25.086022,121.5096458,come,0100000900,9
18分鐘,26,社子市場,1117200100,25.087505,121.5090743,come,0100000900,9
20分鐘,27,社園里,1117200600,25.089056,121.5079873,come,0100000900,9
21分鐘,28,社子派出所,1117200360,25.089599,121.5064251,come,0100000900,9
22分鐘,29,永倫里(南),1117200760,25.089467,121.503968,come,0100000900,9
22分鐘,30,社子國小,1117200400,25.089904,121.5025776,come,0100000900,9
,1,華中河濱公園,1087100100,25.017171,121.4960943,go,0100001200,12
,2,果菜市場,1087200000,25.01987,121.497706,go,0100001200,12
,3,光仁國小,1086100020,25.02122,121.5004577,go,0100001200,12
,4,青年路派出所,1086000120,25.021996,121.5021881,go,0100001200,12
,5,青年路,1087500000,25.023084,121.5027448,go,0100001200,12
,6,中正新城,1087600000,25.024797,121.5032962,go,0100001200,12
,7,青年社區,1087600200,25.025478,121.504647,go,0100001200,12
,8,青年公園(青年),1087600100,25.025964,121.5062868,go,0100001200,12
,9,青年公園(國興),1088200340,25.0253,121.50712,go,0100001200,12
,10,國興路口一,1088100300,25.024585,121.5088101,go,0100001200,12
,11,國興路口,1006700300,25.025757,121.508379,go,0100001200,12
,12,中華南海路口,1006700100,25.027236,121.5066611,go,0100001200,12
,13,南機場公寓,1006900000,25.028591,121.5054077,go,0100001200,12
,14,廈安里,1006800300,25.030697,121.5041681,go,0100001200,12
,15,大埔街,1006800000,25.032684,121.504945,go,0100001200,12
,16,聯合醫院和平院區,1006500101,25.0357,121.506607,go,0100001200,12
,17,捷運西門站,1084600300,25.04173,121.5082859,go,0100001200,12
,18,中華路北站,1004200200,25.045696,121.5093807,go,0100001200,12
,19,捷運北門站,1034100601,25.050609,121.5106101,go,0100001200,12
,20,延平一站(長安),1034100220,25.05181,121.51269,go,0100001200,12
,21,圓環(重慶),1035000300,25.052844,121.514207,go,0100001200,12
,22,圓環(南京),1035000220,25.053651,121.5157054,go,0100001200,12
,23,捷運中山站(志仁高中),1035200120,25.05271,121.5196749,go,0100001200,12
,24,南京林森路口,1045400120,25.052069,121.5250604,go,0100001200,12
,25,南京吉林路口,1045700220,25.052007,121.529855,go,0100001200,12
,26,捷運松江南京站,1045700420,25.051969,121.5327305,go,0100001200,12
,27,長春國小,1048500120,25.05472,121.53409,go,0100001200,12
,28,臺北大學(臺北校區),1048700020,25.054618,121.5386259,go,0100001200,12
,29,長春市場,1048700120,25.054528,121.5417353,go,0100001200,12
,30,慶城街口,1054700220,25.0545,121.54574,go,0100001200,12
,31,長庚醫院,1050800000,25.05656,121.54929,go,0100001200,12
,32,公教住宅,1057400020,25.057928,121.5525641,go,0100001200,12
,33,介壽國中,1057200020,25.058238,121.5557293,go,0100001200,12
,34,聯合二村,1057600220,25.058501,121.5592167,go,0100001200,12
,35,民生社區活動中心,1057300020,25.05864,121.560927,go,0100001200,12
,36,廣合新村,1058800100,25.06067,121.56339,go,0100001200,12
,37,三民國小,1059200020,25.06283,121.56362,go,0100001200,12
,38,新益里,1059200140,25.062286,121.566155,go,0100001200,12
,1,民生國中,1059100040,25.059661,121.5679233,go,0100001200,12
,2,新東街口,1058900160,25.059272,121.5663967,go,0100001200,12
,3,民生社區活動中心,1057300060,25.058808,121.5611445,go,0100001200,12
,4,聯合二村,1057600260,25.058624,121.5589234,go,0100001200,12
,5,介壽國中,1057200060,25.058415,121.5560444,go,0100001200,12
,6,公教住宅,1057400060,25.058131,121.5526273,go,0100001200,12
,7,民生敦化路口,1054600060,25.057851,121.5468517,go,0100001200,12
,8,興安華城,1048000340,25.05685,121.5439555,go,0100001200,12
,9,長春市場,1047900160,25.054803,121.5416683,go,0100001200,12
,10,臺北大學(臺北校區),1047900060,25.05488,121.5386725,go,0100001200,12
,11,長春國小,1048500160,25.054904,121.534178,go,0100001200,12
,12,松江長春路口,1045800140,25.054176,121.5329348,go,0100001200,12
,13,南京吉林路口,1045700260,25.052112,121.5303325,go,0100001200,12
,14,南京林森路口,1045400160,25.052167,121.5257174,go,0100001200,12
,15,捷運中山站(志仁高中),1035200160,25.052867,121.519866,go,0100001200,12
,16,後車站,1034900160,25.051433,121.5151374,go,0100001200,12
,17,延平一站(長安),1034100260,25.0519,121.513,go,0100001200,12
,18,聯合醫院中興院區(塔城),1034100640,25.051335,121.5103985,go,0100001200,12
,19,捷運北門站,1034100140,25.049002,121.510134,go,0100001200,12
,20,中華路北站,1084300040,25.045511,121.5091441,go,0100001200,12
,21,捷運西門站,1084400340,25.042516,121.5082667,go,0100001200,12
,22,小南門,1085000040,25.037868,121.5069037,go,0100001200,12
,23,聯合醫院和平院區,1006500140,25.036493,121.5065075,go,0100001200,12
,24,大埔街,1086200040,25.032074,121.5044162,go,0100001200,12
,25,廈安里,1088000140,25.02966,121.50438,go,0100001200,12
,26,南機場公寓,1088000040,25.028384,121.5054653,go,0100001200,12
,27,中華南海路口,1088100040,25.027343,121.5064379,go,0100001200,12
,28,國興路口,1088100240,25.025621,121.508316,go,0100001200,12
,29,古亭國中,1088200020,25.024664,121.509833,go,0100001200,12
,30,萬華醫院,1007200140,25.02391,121.50982,go,0100001200,12
,31,國興社區,1087700000,25.023497,121.5084584,go,0100001200,12
,32,青年公園(國興),1088100100,25.024607,121.507953,go,0100001200,12
,33,青年公園(青年),1087600140,25.025963,121.5060238,go,0100001200,12
,34,青年社區,1087600240,25.025473,121.504417,go,0100001200,12
,35,中正新城,1087600040,25.0248,121.5031839,go,0100001200,12
,36,青年路,1087500040,25.022481,121.502584,go,0100001200,12
,37,青年路派出所,1087400060,25.022046,121.5020378,go,0100001200,12
,38,光仁國小,1087300060,25.021416,121.5006187,go,0100001200,12
,39,果菜市場,1087200041,25.01942,121.497234,go,0100001200,12
,40,華中河濱公園,1087200140,25.01714,121.49565,go,0100001200,12
,1,華中河濱公園,1087100100,25.017171,121.4960943,come,0100001200,12
,2,果菜市場,1087200000,25.01987,121.497706,come,0100001200,12
,3,光仁國小,1086100020,25.02122,121.5004577,come,0100001200,12
,4,青年路派出所,1086000120,25.021996,121.5021881,come,0100001200,12
,5,青年路,1087500000,25.023084,121.5027448,come,0100001200,12
,6,中正新城,1087600000,25.024797,121.5032962,come,0100001200,12
,7,青年社區,1087600200,25.025478,121.504647,come,0100001200,12
,8,青年公園(青年),1087600100,25.025964,121.5062868,come,0100001200,12
,9,青年公園(國興),1088200340,25.0253,121.50712,come,0100001200,12
,10,國興路口一,1088100300,25.024585,121.5088101,come,0100001200,12
,11,國興路口,1006700300,25.025757,121.508379,come,0100001200,12
,12,中華南海路口,1006700100,25.027236,121.5066611,come,0100001200,12
,13,南機場公寓,1006900000,25.028591,121.5054077,come,0100001200,12
,14,廈安里,1006800300,25.030697,121.5041681,come,0100001200,12
,15,大埔街,1006800000,25.032684,121.504945,come,0100001200,12
,16,聯合醫院和平院區,1006500101,25.0357,121.506607,come,0100001200,12
,17,捷運西門站,1084600300,25.04173,121.5082859,come,0100001200,12
,18,中華路北站,1004200200,25.045696,121.5093807,come,0100001200,12
,19,捷運北門站,1034100601,25.050609,121.5106101,come,0100001200,12
,20,延平一站(長安),1034100220,25.05181,121.51269,come,0100001200,12
,21,圓環(重慶),1035000300,25.052844,121.514207,come,0100001200,12
,22,圓環(南京),1035000220,25.053651,121.5157054,come,0100001200,12
,23,捷運中山站(志仁高中),1035200120,25.05271,121.5196749,come,0100001200,12
,24,南京林森路口,1045400120,25.052069,121.5250604,come,0100001200,12
,25,南京吉林路口,1045700220,25.052007,121.529855,come,0100001200,12
,26,捷運松江南京站,1045700420,25.051969,121.5327305,come,0100001200,12
,27,長春國小,1048500120,25.05472,121.53409,come,0100001200,12
,28,臺北大學(臺北校區),1048700020,25.054618,121.5386259,come,0100001200,12
,29,長春市場,1048700120,25.054528,121.5417353,come,0100001200,12
,30,慶城街口,1054700220,25.0545,121.54574,come,0100001200,12
,31,長庚醫院,1050800000,25.05656,121.54929,come,0100001200,12
,32,公教住宅,1057400020,25.057928,121.5525641,come,0100001200,12
,33,介壽國中,1057200020,25.058238,121.5557293,come,0100001200,12
,34,聯合二村,1057600220,25.058501,121.5592167,come,0100001200,12
,35,民生社區活動中心,1057300020,25.05864,121.560927,come,0100001200,12
,36,廣合新村,1058800100,25.06067,121.56339,come,0100001200,12
,37,三民國小,1059200020,25.06283,121.56362,come,0100001200,12
,38,新益里,1059200140,25.062286,121.566155,come,0100001200,12
18分鐘,1,民生國中,1059100040,25.059661,121.5679233,come,0100001200,12
19分鐘,2,新東街口,1058900160,25.059272,121.5663967,come,0100001200,12
21分鐘,3,民生社區活動中心,1057300060,25.058808,121.5611445,come,0100001200,12
22分鐘,4,聯合二村,1057600260,25.058624,121.5589234,come,0100001200,12
23分鐘,5,介壽國中,1057200060,25.058415,121.5560444,come,0100001200,12
24分鐘,6,公教住宅,1057400060,25.058131,121.5526273,come,0100001200,12
27分鐘,7,民生敦化路口,1054600060,25.057851,121.5468517,come,0100001200,12
30分鐘,8,興安華城,1048000340,25.05685,121.5439555,come,0100001200,12
進站中,9,長春市場,1047900160,25.054803,121.5416683,come,0100001200,12
進站中,10,臺北大學(臺北校區),1047900060,25.05488,121.5386725,come,0100001200,12
4分鐘,11,長春國小,1048500160,25.054904,121.534178,come,0100001200,12
7分鐘,12,松江長春路口,1045800140,25.054176,121.5329348,come,0100001200,12
10分鐘,13,南京吉林路口,1045700260,25.052112,121.5303325,come,0100001200,12
11分鐘,14,南京林森路口,1045400160,25.052167,121.5257174,come,0100001200,12
15分鐘,15,捷運中山站(志仁高中),1035200160,25.052867,121.519866,come,0100001200,12
進站中,16,後車站,1034900160,25.051433,121.5151374,come,0100001200,12
進站中,17,延平一站(長安),1034100260,25.0519,121.513,come,0100001200,12
4分鐘,18,聯合醫院中興院區(塔城),1034100640,25.051335,121.5103985,come,0100001200,12
6分鐘,19,捷運北門站,1034100140,25.049002,121.510134,come,0100001200,12
9分鐘,20,中華路北站,1084300040,25.045511,121.5091441,come,0100001200,12
10分鐘,21,捷運西門站,1084400340,25.042516,121.5082667,come,0100001200,12
13分鐘,22,小南門,1085000040,25.037868,121.5069037,come,0100001200,12
14分鐘,23,聯合醫院和平院區,1006500140,25.036493,121.5065075,come,0100001200,12
進站中,24,大埔街,1086200040,25.032074,121.5044162,come,0100001200,12
進站中,25,廈安里,1088000140,25.02966,121.50438,come,0100001200,12
進站中,26,南機場公寓,1088000040,25.028384,121.5054653,come,0100001200,12
4分鐘,27,中華南海路口,1088100040,25.027343,121.5064379,come,0100001200,12
4分鐘,28,國興路口,1088100240,25.025621,121.508316,come,0100001200,12
5分鐘,29,古亭國中,1088200020,25.024664,121.509833,come,0100001200,12
7分鐘,30,萬華醫院,1007200140,25.02391,121.50982,come,0100001200,12
7分鐘,31,國興社區,1087700000,25.023497,121.5084584,come,0100001200,12
8分鐘,32,青年公園(國興),1088100100,25.024607,121.507953,come,0100001200,12
10分鐘,33,青年公園(青年),1087600140,25.025963,121.5060238,come,0100001200,12
11分鐘,34,青年社區,1087600240,25.025473,121.504417,come,0100001200,12
11分鐘,35,中正新城,1087600040,25.0248,121.5031839,come,0100001200,12
13分鐘,36,青年路,1087500040,25.022481,121.502584,come,0100001200,12
進站中,37,青年路派出所,1087400060,25.022046,121.5020378,come,0100001200,12
進站中,38,光仁國小,1087300060,25.021416,121.5006187,come,0100001200,12
4分鐘,39,果菜市場,1087200041,25.01942,121.497234,come,0100001200,12
6分鐘,40,華中河濱公園,1087200140,25.01714,121.49565,come,0100001200,12
尚未發車,1,蘆洲站,2475600620,25.078535,121.4691805,go,0100001400,14
尚未發車,2,和平路口,2475600300,25.079471,121.469744,go,0100001400,14
尚未發車,3,蘆洲監理站(中正路),2475600800,25.081845,121.4716472,go,0100001400,14
尚未發車,4,蘆洲國小,2475700500,25.0833,121.4703582,go,0100001400,14
尚未發車,5,中原公寓,2475800000,25.085252,121.469088,go,0100001400,14
尚未發車,6,空中大學(中正路),2475900900,25.087176,121.467676,go,0100001400,14
尚未發車,7,王爺廟口,2475900600,25.08809,121.466902,go,0100001400,14
尚未發車,8,民族路口,2476000100,25.090065,121.467789,go,0100001400,14
尚未發車,9,捷運蘆洲站,2476000501,25.091246,121.4647878,go,0100001400,14
尚未發車,10,捷運蘆洲站,2476000500,25.091486,121.4638568,go,0100001400,14
進站中,11,長榮路,2476500540,25.092312,121.4603296,go,0100001400,14
進站中,12,永平市場,2476500040,25.090164,121.459433,go,0100001400,14
進站中,13,永樂街,2476700060,25.088362,121.458711,go,0100001400,14
3分鐘,14,長安街,2476100240,25.087981,121.4572506,go,0100001400,14
4分鐘,15,成功國小,2476100140,25.08625,121.4573852,go,0100001400,14
5分鐘,16,永康公園,2476100040,25.084758,121.458052,go,0100001400,14
6分鐘,17,長安街一,2476300640,25.082792,121.4593921,go,0100001400,14
8分鐘,18,忠義廟,2476300340,25.081153,121.4611032,go,0100001400,14
進站中,19,延平里,2476400140,25.079614,121.4631595,go,0100001400,14
進站中,20,九芎街,2475000000,25.07935,121.465375,go,0100001400,14
進站中,21,九芎廟,2475000240,25.078995,121.4665749,go,0100001400,14
進站中,22,九芎街口,2475000120,25.07848,121.46855,go,0100001400,14
4分鐘,23,永安里,2475000540,25.077997,121.468829,go,0100001400,14
4分鐘,24,大同新村,2487400040,25.075184,121.4679157,go,0100001400,14
6分鐘,25,褒仔寮,2487200120,25.07235,121.468721,go,0100001400,14
7分鐘,26,穀保家商,2415700620,25.072073,121.4706925,go,0100001400,14
7分鐘,27,仙公廟,2415700320,25.071403,121.473752,go,0100001400,14
9分鐘,28,博愛新村,2415700420,25.069419,121.477545,go,0100001400,14
進站中,29,三重商工(中正北路),2416200320,25.06855,121.48052,go,0100001400,14
進站中,30,忠孝三民街口,2416200860,25.066998,121.481324,go,0100001400,14
4分鐘,31,東海中學,2416100720,25.065398,121.482301,go,0100001400,14
5分鐘,32,三民街,2416200220,25.063325,121.485128,go,0100001400,14
7分鐘,33,三重稅捐分處,2410300040,25.060305,121.486632,go,0100001400,14
7分鐘,34,菜寮(重陽路),2416101240,25.058009,121.486516,go,0100001400,14
11分鐘,35,菜寮(重新路),2414400620,25.057218,121.487921,go,0100001400,14
12分鐘,36,捷運菜寮站,2414301020,25.059073,121.4905425,go,0100001400,14
13分鐘,37,中山藝術公園,2414300120,25.060432,121.4925214,go,0100001400,14
進站中,38,中正南路,2414300240,25.059275,121.4940315,go,0100001400,14
進站中,39,重安街口,2414300840,25.057057,121.4939169,go,0100001400,14
進站中,40,臺北車站(鄭州),1035100420,25.048497,121.5171976,go,0100001400,14
,1,行政院,1004100540,25.046484,121.5197596,go,0100001400,14
,2,臺北車站(忠孝),1004100761,25.047409,121.5139852,go,0100001400,14
,3,重安街口,2414300800,25.056951,121.4941915,go,0100001400,14
,4,中正南路,2414300200,25.059629,121.494168,go,0100001400,14
,5,中山藝術公園,2414300160,25.060541,121.492298,go,0100001400,14
,6,捷運菜寮站,2414100860,25.059479,121.490697,go,0100001400,14
,7,菜寮(重新路),2414400660,25.057446,121.4878276,go,0100001400,14
,8,菜寮(重陽路),2416101200,25.057718,121.4867994,go,0100001400,14
,9,三重稅捐分處,2416100200,25.060408,121.4869182,go,0100001400,14
,10,三民街,2416200260,25.06343,121.485248,go,0100001400,14
,11,東海中學,2416100760,25.065509,121.482592,go,0100001400,14
,12,忠孝三民街口,2416100420,25.06698,121.481556,go,0100001400,14
,13,三重商工(中正北路),2416200360,25.068996,121.479868,go,0100001400,14
,14,博愛新村,2415700460,25.069522,121.4776879,go,0100001400,14
,15,仙公廟,2415700360,25.07155,121.4737968,go,0100001400,14
,16,穀保家商,2415700660,25.072137,121.47112,go,0100001400,14
,17,褒仔寮,2487200160,25.072575,121.4683812,go,0100001400,14
,18,大同新村,2487400000,25.074202,121.46775,go,0100001400,14
,19,永安里,2475000500,25.077839,121.468953,go,0100001400,14
,20,九芎街口,2475000160,25.078631,121.468493,go,0100001400,14
,21,九芎廟,2475000200,25.079227,121.466562,go,0100001400,14
,22,九芎街,2475000040,25.07899,121.46489,go,0100001400,14
,23,延平里,2476400100,25.07973,121.4632078,go,0100001400,14
,24,忠義廟,2476300300,25.081292,121.461196,go,0100001400,14
,25,長安街一,2476200300,25.08286,121.45954,go,0100001400,14
,26,永康公園,2476100000,25.084877,121.4581955,go,0100001400,14
,27,成功國小,2476100100,25.086317,121.4575421,go,0100001400,14
,28,長安街,2476100200,25.087758,121.4573378,go,0100001400,14
,29,永樂街,2476700020,25.088157,121.458516,go,0100001400,14
,30,永平市場,2476500000,25.090129,121.459668,go,0100001400,14
,31,長榮路,2476500500,25.09233,121.4606387,go,0100001400,14
,32,捷運蘆洲站,2476000540,25.09079,121.465126,go,0100001400,14
,33,民族路口,2476000140,25.089515,121.4681391,go,0100001400,14
,34,王爺廟口,2475900640,25.08814,121.46664,go,0100001400,14
,35,空中大學(中正路),2475900940,25.086711,121.4677982,go,0100001400,14
,36,中原公寓,2475800040,25.085747,121.4684977,go,0100001400,14
,37,蘆洲國小,2475700540,25.08302,121.470464,go,0100001400,14
,38,蘆洲監理站,2475600860,25.081456,121.4714493,go,0100001400,14
,39,和平路口,2475600340,25.07953,121.4694739,go,0100001400,14
,40,蘆洲站,2475600620,25.078535,121.4691805,go,0100001400,14
,1,蘆洲站,2475600620,25.078535,121.4691805,come,0100001400,14
,2,和平路口,2475600300,25.079471,121.469744,come,0100001400,14
,3,蘆洲監理站(中正路),2475600800,25.081845,121.4716472,come,0100001400,14
,4,蘆洲國小,2475700500,25.0833,121.4703582,come,0100001400,14
,5,中原公寓,2475800000,25.085252,121.469088,come,0100001400,14
,6,空中大學(中正路),2475900900,25.087176,121.467676,come,0100001400,14
,7,王爺廟口,2475900600,25.08809,121.466902,come,0100001400,14
,8,民族路口,2476000100,25.090065,121.467789,come,0100001400,14
,9,捷運蘆洲站,2476000501,25.091246,121.4647878,come,0100001400,14
,10,捷運蘆洲站,2476000500,25.091486,121.4638568,come,0100001400,14
,11,長榮路,2476500540,25.092312,121.4603296,come,0100001400,14
,12,永平市場,2476500040,25.090164,121.459433,come,0100001400,14
,13,永樂街,2476700060,25.088362,121.458711,come,0100001400,14
,14,長安街,2476100240,25.087981,121.4572506,come,0100001400,14
,15,成功國小,2476100140,25.08625,121.4573852,come,0100001400,14
,16,永康公園,2476100040,25.084758,121.458052,come,0100001400,14
,17,長安街一,2476300640,25.082792,121.4593921,come,0100001400,14
,18,忠義廟,2476300340,25.081153,121.4611032,come,0100001400,14
,19,延平里,2476400140,25.079614,121.4631595,come,0100001400,14
,20,九芎街,2475000000,25.07935,121.465375,come,0100001400,14
,21,九芎廟,2475000240,25.078995,121.4665749,come,0100001400,14
,22,九芎街口,2475000120,25.07848,121.46855,come,0100001400,14
,23,永安里,2475000540,25.077997,121.468829,come,0100001400,14
,24,大同新村,2487400040,25.075184,121.4679157,come,0100001400,14
,25,褒仔寮,2487200120,25.07235,121.468721,come,0100001400,14
,26,穀保家商,2415700620,25.072073,121.4706925,come,0100001400,14
,27,仙公廟,2415700320,25.071403,121.473752,come,0100001400,14
,28,博愛新村,2415700420,25.069419,121.477545,come,0100001400,14
,29,三重商工(中正北路),2416200320,25.06855,121.48052,come,0100001400,14
,30,忠孝三民街口,2416200860,25.066998,121.481324,come,0100001400,14
,31,東海中學,2416100720,25.065398,121.482301,come,0100001400,14
,32,三民街,2416200220,25.063325,121.485128,come,0100001400,14
,33,三重稅捐分處,2410300040,25.060305,121.486632,come,0100001400,14
,34,菜寮(重陽路),2416101240,25.058009,121.486516,come,0100001400,14
,35,菜寮(重新路),2414400620,25.057218,121.487921,come,0100001400,14
,36,捷運菜寮站,2414301020,25.059073,121.4905425,come,0100001400,14
,37,中山藝術公園,2414300120,25.060432,121.4925214,come,0100001400,14
,38,中正南路,2414300240,25.059275,121.4940315,come,0100001400,14
,39,重安街口,2414300840,25.057057,121.4939169,come,0100001400,14
,40,臺北車站(鄭州),1035100420,25.048497,121.5171976,come,0100001400,14
4分鐘,1,行政院,1004100540,25.046484,121.5197596,come,0100001400,14
7分鐘,2,臺北車站(忠孝),1004100761,25.047409,121.5139852,come,0100001400,14
14分鐘,3,重安街口,2414300800,25.056951,121.4941915,come,0100001400,14
進站中,4,中正南路,2414300200,25.059629,121.494168,come,0100001400,14
進站中,5,中山藝術公園,2414300160,25.060541,121.492298,come,0100001400,14
3分鐘,6,捷運菜寮站,2414100860,25.059479,121.490697,come,0100001400,14
5分鐘,7,菜寮(重新路),2414400660,25.057446,121.4878276,come,0100001400,14
6分鐘,8,菜寮(重陽路),2416101200,25.057718,121.4867994,come,0100001400,14
7分鐘,9,三重稅捐分處,2416100200,25.060408,121.4869182,come,0100001400,14
9分鐘,10,三民街,2416200260,25.06343,121.485248,come,0100001400,14
10分鐘,11,東海中學,2416100760,25.065509,121.482592,come,0100001400,14
11分鐘,12,忠孝三民街口,2416100420,25.06698,121.481556,come,0100001400,14
13分鐘,13,三重商工(中正北路),2416200360,25.068996,121.479868,come,0100001400,14
14分鐘,14,博愛新村,2415700460,25.069522,121.4776879,come,0100001400,14
16分鐘,15,仙公廟,2415700360,25.07155,121.4737968,come,0100001400,14
16分鐘,16,穀保家商,2415700660,25.072137,121.47112,come,0100001400,14
進站中,17,褒仔寮,2487200160,25.072575,121.4683812,come,0100001400,14
進站中,18,大同新村,2487400000,25.074202,121.46775,come,0100001400,14
進站中,19,永安里,2475000500,25.077839,121.468953,come,0100001400,14
進站中,20,九芎街口,2475000160,25.078631,121.468493,come,0100001400,14
進站中,21,九芎廟,2475000200,25.079227,121.466562,come,0100001400,14
進站中,22,九芎街,2475000040,25.07899,121.46489,come,0100001400,14
3分鐘,23,延平里,2476400100,25.07973,121.4632078,come,0100001400,14
4分鐘,24,忠義廟,2476300300,25.081292,121.461196,come,0100001400,14
5分鐘,25,長安街一,2476200300,25.08286,121.45954,come,0100001400,14
7分鐘,26,永康公園,2476100000,25.084877,121.4581955,come,0100001400,14
8分鐘,27,成功國小,2476100100,25.086317,121.4575421,come,0100001400,14
8分鐘,28,長安街,2476100200,25.087758,121.4573378,come,0100001400,14
進站中,29,永樂街,2476700020,25.088157,121.458516,come,0100001400,14
進站中,30,永平市場,2476500000,25.090129,121.459668,come,0100001400,14
進站中,31,長榮路,2476500500,25.09233,121.4606387,come,0100001400,14
進站中,32,捷運蘆洲站,2476000540,25.09079,121.465126,come,0100001400,14
3分鐘,33,民族路口,2476000140,25.089515,121.4681391,come,0100001400,14
5分鐘,34,王爺廟口,2475900640,25.08814,121.46664,come,0100001400,14
6分鐘,35,空中大學(中正路),2475900940,25.086711,121.4677982,come,0100001400,14
6分鐘,36,中原公寓,2475800040,25.085747,121.4684977,come,0100001400,14
8分鐘,37,蘆洲國小,2475700540,25.08302,121.470464,come,0100001400,14
9分鐘,38,蘆洲監理站,2475600860,25.081456,121.4714493,come,0100001400,14
11分鐘,39,和平路口,2475600340,25.07953,121.4694739,come,0100001400,14
進站中,40,蘆洲站,2475600620,25.078535,121.4691805,come,0100001400,14
進站中,1,華江站,1037600320,25.032283,121.4889513,go,0100001800,18
進站中,2,人壽一村,1085800020,25.031523,121.4902758,go,0100001800,18
進站中,3,大理高中,1088300000,25.031919,121.491328,go,0100001800,18
進站中,4,華江派出所,1088300100,25.034114,121.4933405,go,0100001800,18
3分鐘,5,龍山國小,1085400000,25.0362,121.4953,go,0100001800,18
6分鐘,6,萬華分局,1085300020,25.038421,121.4979101,go,0100001800,18
7分鐘,7,桂林路,1084800120,25.038354,121.5011027,go,0100001800,18
9分鐘,8,昆明活動中心,1085000100,25.038711,121.5040228,go,0100001800,18
11分鐘,9,內江街,1084500020,25.041538,121.5051324,go,0100001800,18
12分鐘,10,西門市場(漢中),1084600000,25.04202,121.507436,go,0100001800,18
13分鐘,11,寶慶路,1004300220,25.041491,121.509834,go,0100001800,18
15分鐘,12,博愛路,1004500100,25.043262,121.511555,go,0100001800,18
16分鐘,13,臺北郵局,1004300000,25.046765,121.5112936,go,0100001800,18
18分鐘,14,臺北車站(忠孝),1004700421,25.046815,121.5145215,go,0100001800,18
22分鐘,15,臺大醫院,1005500340,25.042497,121.5185042,go,0100001800,18
24分鐘,16,捷運中正紀念堂站(中山),1000100040,25.03643,121.51673,go,0100001800,18
25分鐘,17,捷運中正紀念堂站(勞保局),1006600820,25.033718,121.5173063,go,0100001800,18
28分鐘,18,自來水西分處(寧波),1007500020,25.029828,121.5157,go,0100001800,18
31分鐘,19,聯合醫院婦幼院區一,1007500340,25.029987,121.5180375,go,0100001800,18
32分鐘,20,南昌家具街,1008400140,25.027364,121.520315,go,0100001800,18
36分鐘,21,捷運古亭站(和平),1064300220,25.026787,121.5246159,go,0100001800,18
38分鐘,22,師大,1061000020,25.026535,121.5277715,go,0100001800,18
39分鐘,23,師大綜合大樓,1064400320,25.026362,121.529958,go,0100001800,18
41分鐘,24,溫州街口,1067100420,25.026097,121.5330125,go,0100001800,18
43分鐘,25,大安森林公園,1066200020,25.025735,121.5362358,go,0100001800,18
45分鐘,26,龍門國中(和平),1066200220,25.025407,121.5384921,go,0100001800,18
46分鐘,27,復興南路口,1062200020,25.024914,121.5422397,go,0100001800,18
48分鐘,28,國立臺北教育大學,1067000120,25.024603,121.5453433,go,0100001800,18
進站中,29,臥龍街,1066900020,25.024522,121.547571,go,0100001800,18
進站中,30,和平安和路口,1067500120,25.024272,121.5508618,go,0100001800,18
4分鐘,31,捷運六張犁站(和平),1067400020,25.023243,121.5535345,go,0100001800,18
6分鐘,32,富陽街口,1067400120,25.021034,121.5559108,go,0100001800,18
7分鐘,33,黎忠市場,1067600520,25.01926,121.5578044,go,0100001800,18
8分鐘,34,捷運麟光站,1067600320,25.01825,121.55853,go,0100001800,18
,1,黎忠市場,1105700060,25.019475,121.557953,go,0100001800,18
,2,富陽街口,1105600060,25.021127,121.55616,go,0100001800,18
,3,捷運六張犁站(和平),1067400060,25.022926,121.554225,go,0100001800,18
,4,和平安和路口,1067500161,25.024622,121.5513507,go,0100001800,18
,5,臥龍街,1066900060,25.024707,121.5474978,go,0100001800,18
,6,國立臺北教育大學,1067000160,25.024826,121.5448151,go,0100001800,18
,7,復興南路口,1066400460,25.025103,121.5423761,go,0100001800,18
,8,國北教大實小,1066400160,25.02532,121.54065,go,0100001800,18
,9,龍門國中(和平),1066400660,25.025527,121.5391542,go,0100001800,18
,10,大安森林公園,1066200060,25.025928,121.5363198,go,0100001800,18
,11,溫州街口,1064400460,25.026354,121.5326938,go,0100001800,18
,12,師大綜合大樓,1064400360,25.026622,121.53006,go,0100001800,18
,13,師大,1064400260,25.026738,121.5277134,go,0100001800,18
,14,捷運古亭站(和平),1064300261,25.027172,121.523152,go,0100001800,18
,15,羅斯福潮州街口,1009300500,25.02922,121.52096,go,0100001800,18
,16,捷運中正紀念堂站(羅斯福),1009300100,25.032297,121.518848,go,0100001800,18
,17,一女中(公園),1004800000,25.036828,121.5151365,go,0100001800,18
,18,捷運台大醫院站,1004801100,25.041927,121.5163535,go,0100001800,18
,19,博物館(館前),1004700200,25.044177,121.5150573,go,0100001800,18
,20,臺北車站(開封),1004700560,25.046027,121.513879,go,0100001800,18
,21,重慶南路一段,1000500042,25.044432,121.513114,go,0100001800,18
,22,二二八和平公園,1004500060,25.042368,121.5125439,go,0100001800,18
,23,衡陽路,1000900060,25.04227,121.51021,go,0100001800,18
,24,西門市場(成都),1084400160,25.042689,121.5066535,go,0100001800,18
,25,西寧南路,1084600140,25.03991,121.50604,go,0100001800,18
,26,桂林昆明街口,1084900160,25.0381,121.5043,go,0100001800,18
,27,桂林路,1084800160,25.038472,121.5008151,go,0100001800,18
,28,萬華分局,1085300060,25.03861,121.4980643,go,0100001800,18
,29,龍山國小,1085400040,25.03611,121.49478,go,0100001800,18
,30,華江派出所,1088300140,25.034006,121.493016,go,0100001800,18
,31,力霸社區,1085700070,25.034167,121.490111,go,0100001800,18
,32,華江站,1085800340,25.032439,121.4888933,go,0100001800,18
,1,華江站,1037600320,25.032283,121.4889513,come,0100001800,18
,2,人壽一村,1085800020,25.031523,121.4902758,come,0100001800,18
,3,大理高中,1088300000,25.031919,121.491328,come,0100001800,18
,4,華江派出所,1088300100,25.034114,121.4933405,come,0100001800,18
,5,龍山國小,1085400000,25.0362,121.4953,come,0100001800,18
,6,萬華分局,1085300020,25.038421,121.4979101,come,0100001800,18
,7,桂林路,1084800120,25.038354,121.5011027,come,0100001800,18
,8,昆明活動中心,1085000100,25.038711,121.5040228,come,0100001800,18
,9,內江街,1084500020,25.041538,121.5051324,come,0100001800,18
,10,西門市場(漢中),1084600000,25.04202,121.507436,come,0100001800,18
,11,寶慶路,1004300220,25.041491,121.509834,come,0100001800,18
,12,博愛路,1004500100,25.043262,121.511555,come,0100001800,18
,13,臺北郵局,1004300000,25.046765,121.5112936,come,0100001800,18
,14,臺北車站(忠孝),1004700421,25.046815,121.5145215,come,0100001800,18
,15,臺大醫院,1005500340,25.042497,121.5185042,come,0100001800,18
,16,捷運中正紀念堂站(中山),1000100040,25.03643,121.51673,come,0100001800,18
,17,捷運中正紀念堂站(勞保局),1006600820,25.033718,121.5173063,come,0100001800,18
,18,自來水西分處(寧波),1007500020,25.029828,121.5157,come,0100001800,18
,19,聯合醫院婦幼院區一,1007500340,25.029987,121.5180375,come,0100001800,18
,20,南昌家具街,1008400140,25.027364,121.520315,come,0100001800,18
,21,捷運古亭站(和平),1064300220,25.026787,121.5246159,come,0100001800,18
,22,師大,1061000020,25.026535,121.5277715,come,0100001800,18
,23,師大綜合大樓,1064400320,25.026362,121.529958,come,0100001800,18
,24,溫州街口,1067100420,25.026097,121.5330125,come,0100001800,18
,25,大安森林公園,1066200020,25.025735,121.5362358,come,0100001800,18
,26,龍門國中(和平),1066200220,25.025407,121.5384921,come,0100001800,18
,27,復興南路口,1062200020,25.024914,121.5422397,come,0100001800,18
,28,國立臺北教育大學,1067000120,25.024603,121.5453433,come,0100001800,18
,29,臥龍街,1066900020,25.024522,121.547571,come,0100001800,18
,30,和平安和路口,1067500120,25.024272,121.5508618,come,0100001800,18
,31,捷運六張犁站(和平),1067400020,25.023243,121.5535345,come,0100001800,18
,32,富陽街口,1067400120,25.021034,121.5559108,come,0100001800,18
,33,黎忠市場,1067600520,25.01926,121.5578044,come,0100001800,18
,34,捷運麟光站,1067600320,25.01825,121.55853,come,0100001800,18
9分鐘,1,黎忠市場,1105700060,25.019475,121.557953,come,0100001800,18
10分鐘,2,富陽街口,1105600060,25.021127,121.55616,come,0100001800,18
11分鐘,3,捷運六張犁站(和平),1067400060,25.022926,121.554225,come,0100001800,18
13分鐘,4,和平安和路口,1067500161,25.024622,121.5513507,come,0100001800,18
15分鐘,5,臥龍街,1066900060,25.024707,121.5474978,come,0100001800,18
15分鐘,6,國立臺北教育大學,1067000160,25.024826,121.5448151,come,0100001800,18
17分鐘,7,復興南路口,1066400460,25.025103,121.5423761,come,0100001800,18
18分鐘,8,國北教大實小,1066400160,25.02532,121.54065,come,0100001800,18
18分鐘,9,龍門國中(和平),1066400660,25.025527,121.5391542,come,0100001800,18
20分鐘,10,大安森林公園,1066200060,25.025928,121.5363198,come,0100001800,18
22分鐘,11,溫州街口,1064400460,25.026354,121.5326938,come,0100001800,18
24分鐘,12,師大綜合大樓,1064400360,25.026622,121.53006,come,0100001800,18
進站中,13,師大,1064400260,25.026738,121.5277134,come,0100001800,18
3分鐘,14,捷運古亭站(和平),1064300261,25.027172,121.523152,come,0100001800,18
4分鐘,15,羅斯福潮州街口,1009300500,25.02922,121.52096,come,0100001800,18
5分鐘,16,捷運中正紀念堂站(羅斯福),1009300100,25.032297,121.518848,come,0100001800,18
10分鐘,17,一女中(公園),1004800000,25.036828,121.5151365,come,0100001800,18
11分鐘,18,捷運台大醫院站,1004801100,25.041927,121.5163535,come,0100001800,18
14分鐘,19,博物館(館前),1004700200,25.044177,121.5150573,come,0100001800,18
15分鐘,20,臺北車站(開封),1004700560,25.046027,121.513879,come,0100001800,18
17分鐘,21,重慶南路一段,1000500042,25.044432,121.513114,come,0100001800,18
19分鐘,22,二二八和平公園,1004500060,25.042368,121.5125439,come,0100001800,18
19分鐘,23,衡陽路,1000900060,25.04227,121.51021,come,0100001800,18
21分鐘,24,西門市場(成都),1084400160,25.042689,121.5066535,come,0100001800,18
24分鐘,25,西寧南路,1084600140,25.03991,121.50604,come,0100001800,18
27分鐘,26,桂林昆明街口,1084900160,25.0381,121.5043,come,0100001800,18
28分鐘,27,桂林路,1084800160,25.038472,121.5008151,come,0100001800,18
30分鐘,28,萬華分局,1085300060,25.03861,121.4980643,come,0100001800,18
31分鐘,29,龍山國小,1085400040,25.03611,121.49478,come,0100001800,18
33分鐘,30,華江派出所,1088300140,25.034006,121.493016,come,0100001800,18
34分鐘,31,力霸社區,1085700070,25.034167,121.490111,come,0100001800,18
35分鐘,32,華江站,1085800340,25.032439,121.4888933,come,0100001800,18
尚未發車,1,永春高中,1108000000,25.033446,121.5797804,go,0100002000,20
尚未發車,2,松山商職(松山),1107600100,25.036029,121.578609,go,0100002000,20
尚未發車,3,國業里,1107800360,25.03555,121.57704,go,0100002000,20
尚未發車,4,國稅局宿舍,1108500060,25.034442,121.575497,go,0100002000,20
尚未發車,5,捷運象山站,1107300660,25.033006,121.570056,go,0100002000,20
尚未發車,6,信義松仁路口(松仁),1105800400,25.03369,121.5684464,go,0100002000,20
尚未發車,7,松壽路口,1105100460,25.035881,121.5666401,go,0100002000,20
尚未發車,8,市政府(松壽),1105100360,25.035907,121.5646562,go,0100002000,20
尚未發車,9,世貿中心(基隆路),1105100140,25.033772,121.5597982,go,0100002000,20
尚未發車,10,信義光復路口,1105200260,25.0331,121.55813,go,0100002000,20
尚未發車,11,信義通化街口,1067900460,25.033193,121.5546221,go,0100002000,20
尚未發車,12,捷運信義安和站(信義),1068500360,25.033223,121.552849,go,0100002000,20
尚未發車,13,信義敦化路口,1068500260,25.033377,121.549449,go,0100002000,20
尚未發車,14,信義大安路口,1068400060,25.033383,121.5461666,go,0100002000,20
尚未發車,15,捷運大安站(信義),1068400260,25.033404,121.5438266,go,0100002000,20
進站中,16,師大附中,1065800360,25.033382,121.542275,go,0100002000,20
進站中,17,信義建國路口,1065800160,25.033595,121.538468,go,0100002000,20
3分鐘,18,捷運大安森林公園站,1065600460,25.03355,121.5359159,go,0100002000,20
4分鐘,19,信義新生路口,1065600360,25.033627,121.5331327,go,0100002000,20
5分鐘,20,信義永康街口,1065100260,25.033765,121.5301447,go,0100002000,20
6分鐘,21,捷運東門站,1005700060,25.034232,121.526986,go,0100002000,20
8分鐘,22,信義杭州路口,1004800860,25.035417,121.5246296,go,0100002000,20
10分鐘,23,中正紀念堂,1004800960,25.03739,121.52056,go,0100002000,20
14分鐘,24,捷運台大醫院站,1004801100,25.041927,121.5163535,go,0100002000,20
15分鐘,25,博物館(襄陽),1004600360,25.043453,121.5154942,go,0100002000,20
17分鐘,26,衡陽路口,1004500240,25.042568,121.513172,go,0100002000,20
進站中,27,衡陽路,1004300160,25.0423,121.51088,go,0100002000,20
進站中,28,捷運西門站,1084600340,25.041649,121.5078873,go,0100002000,20
3分鐘,29,小南門,1085000340,25.038008,121.5068125,go,0100002000,20
5分鐘,30,聯合醫院和平院區,1006500140,25.036493,121.5065075,go,0100002000,20
8分鐘,31,大埔街,1086200040,25.032074,121.5044162,go,0100002000,20
9分鐘,32,廈安里,1086100540,25.030562,121.5040856,go,0100002000,20
10分鐘,33,南機場公寓,1088000040,25.028384,121.5054653,go,0100002000,20
11分鐘,34,中華南海路口,1088100040,25.027343,121.5064379,go,0100002000,20
12分鐘,35,國興路口,1088100240,25.025621,121.508316,go,0100002000,20
13分鐘,36,古亭國中,1088200020,25.024664,121.509833,go,0100002000,20
14分鐘,37,萬華醫院,1007200140,25.02391,121.50982,go,0100002000,20
15分鐘,38,青年公園(交通教學區),1088200160,25.02149,121.50643,go,0100002000,20
16分鐘,39,青年公園(馬場町),1088200200,25.02023,121.5039,go,0100002000,20
18分鐘,40,青年社宅,1087600300,25.021587,121.502643,go,0100002000,20
19分鐘,41,青年路,1087500000,25.023084,121.5027448,go,0100002000,20
20分鐘,42,中正新城,1087600000,25.024797,121.5032962,go,0100002000,20
進站中,43,青年社區,1087600200,25.025478,121.504647,go,0100002000,20
進站中,44,青年公園(青年),1087600100,25.025964,121.5062868,go,0100002000,20
進站中,45,青年公園(國興),1088200340,25.0253,121.50712,go,0100002000,20
,1,國興路口一,1088100300,25.024585,121.5088101,go,0100002000,20
,2,國興路口,1006700300,25.025757,121.508379,go,0100002000,20
,3,中華南海路口,1006700100,25.027236,121.5066611,go,0100002000,20
,4,南機場公寓,1006900000,25.028591,121.5054077,go,0100002000,20
,5,廈安里,1006800300,25.030697,121.5041681,go,0100002000,20
,6,大埔街,1006800000,25.032684,121.504945,go,0100002000,20
,7,聯合醫院和平院區,1006500101,25.0357,121.506607,go,0100002000,20
,8,小南門,1004200000,25.038213,121.5073666,go,0100002000,20
,9,捷運西門站,1004200400,25.040946,121.5082192,go,0100002000,20
,10,寶慶路,1004300220,25.041491,121.509834,go,0100002000,20
,11,衡陽路口,1004500200,25.042018,121.5132,go,0100002000,20
,12,博物館(襄陽),1004600220,25.043339,121.5157262,go,0100002000,20
,13,捷運台大醫院站,1004600040,25.041935,121.5161481,go,0100002000,20
,14,中正紀念堂,1004800920,25.037153,121.520771,go,0100002000,20
,15,信義杭州路口,1004800820,25.0357,121.5238361,go,0100002000,20
,16,捷運東門站,1064100120,25.034134,121.5269937,go,0100002000,20
,17,信義永康街口(捷運東門站),1065000320,25.033693,121.529727,go,0100002000,20
,18,信義新生路口,1006100020,25.03353,121.5323283,go,0100002000,20
,19,捷運大安森林公園站,1065600420,25.033496,121.5356316,go,0100002000,20
,20,信義建國路口,1065800120,25.033441,121.539045,go,0100002000,20
,21,捷運大安站(信義),1065800420,25.033323,121.5432319,go,0100002000,20
,22,信義大安路口,1068300220,25.0332,121.5456,go,0100002000,20
,23,信義敦化路口,1068100120,25.033262,121.548298,go,0100002000,20
,24,捷運信義安和站(信義),1068500320,25.033142,121.551229,go,0100002000,20
,25,信義通化街口,1067900420,25.033087,121.5539941,go,0100002000,20
,26,信義光復路口,1067900320,25.03311,121.55687,go,0100002000,20
,27,世貿中心(基隆路),1105100100,25.033677,121.5601565,go,0100002000,20
,28,市政府(松壽),1105100320,25.035836,121.5648932,go,0100002000,20
,29,松壽路口,1105100420,25.035784,121.5674077,go,0100002000,20
,30,信義松仁路口(松仁),1105800440,25.034535,121.568236,go,0100002000,20
,31,捷運象山站,1104700720,25.032648,121.568984,go,0100002000,20
,32,國稅局宿舍,1108500020,25.03433,121.575678,go,0100002000,20
,33,松山商職(福德),1107700520,25.036219,121.5787474,go,0100002000,20
,34,永春高中,1108000040,25.033484,121.5796725,go,0100002000,20
,1,永春高中,1108000000,25.033446,121.5797804,come,0100002000,20
,2,松山商職(松山),1107600100,25.036029,121.578609,come,0100002000,20
,3,國業里,1107800360,25.03555,121.57704,come,0100002000,20
,4,國稅局宿舍,1108500060,25.034442,121.575497,come,0100002000,20
,5,捷運象山站,1107300660,25.033006,121.570056,come,0100002000,20
,6,信義松仁路口(松仁),1105800400,25.03369,121.5684464,come,0100002000,20
,7,松壽路口,1105100460,25.035881,121.5666401,come,0100002000,20
,8,市政府(松壽),1105100360,25.035907,121.5646562,come,0100002000,20
,9,世貿中心(基隆路),1105100140,25.033772,121.5597982,come,0100002000,20
,10,信義光復路口,1105200260,25.0331,121.55813,come,0100002000,20
,11,信義通化街口,1067900460,25.033193,121.5546221,come,0100002000,20
,12,捷運信義安和站(信義),1068500360,25.033223,121.552849,come,0100002000,20
,13,信義敦化路口,1068500260,25.033377,121.549449,come,0100002000,20
,14,信義大安路口,1068400060,25.033383,121.5461666,come,0100002000,20
,15,捷運大安站(信義),1068400260,25.033404,121.5438266,come,0100002000,20
,16,師大附中,1065800360,25.033382,121.542275,come,0100002000,20
,17,信義建國路口,1065800160,25.033595,121.538468,come,0100002000,20
,18,捷運大安森林公園站,1065600460,25.03355,121.5359159,come,0100002000,20
,19,信義新生路口,1065600360,25.033627,121.5331327,come,0100002000,20
,20,信義永康街口,1065100260,25.033765,121.5301447,come,0100002000,20
,21,捷運東門站,1005700060,25.034232,121.526986,come,0100002000,20
,22,信義杭州路口,1004800860,25.035417,121.5246296,come,0100002000,20
,23,中正紀念堂,1004800960,25.03739,121.52056,come,0100002000,20
,24,捷運台大醫院站,1004801100,25.041927,121.5163535,come,0100002000,20
,25,博物館(襄陽),1004600360,25.043453,121.5154942,come,0100002000,20
,26,衡陽路口,1004500240,25.042568,121.513172,come,0100002000,20
,27,衡陽路,1004300160,25.0423,121.51088,come,0100002000,20
,28,捷運西門站,1084600340,25.041649,121.5078873,come,0100002000,20
,29,小南門,1085000340,25.038008,121.5068125,come,0100002000,20
,30,聯合醫院和平院區,1006500140,25.036493,121.5065075,come,0100002000,20
,31,大埔街,1086200040,25.032074,121.5044162,come,0100002000,20
,32,廈安里,1086100540,25.030562,121.5040856,come,0100002000,20
,33,南機場公寓,1088000040,25.028384,121.5054653,come,0100002000,20
,34,中華南海路口,1088100040,25.027343,121.5064379,come,0100002000,20
,35,國興路口,1088100240,25.025621,121.508316,come,0100002000,20
,36,古亭國中,1088200020,25.024664,121.509833,come,0100002000,20
,37,萬華醫院,1007200140,25.02391,121.50982,come,0100002000,20
,38,青年公園(交通教學區),1088200160,25.02149,121.50643,come,0100002000,20
,39,青年公園(馬場町),1088200200,25.02023,121.5039,come,0100002000,20
,40,青年社宅,1087600300,25.021587,121.502643,come,0100002000,20
,41,青年路,1087500000,25.023084,121.5027448,come,0100002000,20
,42,中正新城,1087600000,25.024797,121.5032962,come,0100002000,20
,43,青年社區,1087600200,25.025478,121.504647,come,0100002000,20
,44,青年公園(青年),1087600100,25.025964,121.5062868,come,0100002000,20
,45,青年公園(國興),1088200340,25.0253,121.50712,come,0100002000,20
進站中,1,國興路口一,1088100300,25.024585,121.5088101,come,0100002000,20
3分鐘,2,國興路口,1006700300,25.025757,121.508379,come,0100002000,20
進站中,3,中華南海路口,1006700100,25.027236,121.5066611,come,0100002000,20
進站中,4,南機場公寓,1006900000,25.028591,121.5054077,come,0100002000,20
進站中,5,廈安里,1006800300,25.030697,121.5041681,come,0100002000,20
進站中,6,大埔街,1006800000,25.032684,121.504945,come,0100002000,20
4分鐘,7,聯合醫院和平院區,1006500101,25.0357,121.506607,come,0100002000,20
6分鐘,8,小南門,1004200000,25.038213,121.5073666,come,0100002000,20
7分鐘,9,捷運西門站,1004200400,25.040946,121.5082192,come,0100002000,20
10分鐘,10,寶慶路,1004300220,25.041491,121.509834,come,0100002000,20
13分鐘,11,衡陽路口,1004500200,25.042018,121.5132,come,0100002000,20
14分鐘,12,博物館(襄陽),1004600220,25.043339,121.5157262,come,0100002000,20
16分鐘,13,捷運台大醫院站,1004600040,25.041935,121.5161481,come,0100002000,20
20分鐘,14,中正紀念堂,1004800920,25.037153,121.520771,come,0100002000,20
21分鐘,15,信義杭州路口,1004800820,25.0357,121.5238361,come,0100002000,20
23分鐘,16,捷運東門站,1064100120,25.034134,121.5269937,come,0100002000,20
24分鐘,17,信義永康街口(捷運東門站),1065000320,25.033693,121.529727,come,0100002000,20
25分鐘,18,信義新生路口,1006100020,25.03353,121.5323283,come,0100002000,20
26分鐘,19,捷運大安森林公園站,1065600420,25.033496,121.5356316,come,0100002000,20
進站中,20,信義建國路口,1065800120,25.033441,121.539045,come,0100002000,20
進站中,21,捷運大安站(信義),1065800420,25.033323,121.5432319,come,0100002000,20
3分鐘,22,信義大安路口,1068300220,25.0332,121.5456,come,0100002000,20
4分鐘,23,信義敦化路口,1068100120,25.033262,121.548298,come,0100002000,20
6分鐘,24,捷運信義安和站(信義),1068500320,25.033142,121.551229,come,0100002000,20
7分鐘,25,信義通化街口,1067900420,25.033087,121.5539941,come,0100002000,20
8分鐘,26,信義光復路口,1067900320,25.03311,121.55687,come,0100002000,20
11分鐘,27,世貿中心(基隆路),1105100100,25.033677,121.5601565,come,0100002000,20
進站中,28,市政府(松壽),1105100320,25.035836,121.5648932,come,0100002000,20
進站中,29,松壽路口,1105100420,25.035784,121.5674077,come,0100002000,20
進站中,30,信義松仁路口(松仁),1105800440,25.034535,121.568236,come,0100002000,20
5分鐘,31,捷運象山站,1104700720,25.032648,121.568984,come,0100002000,20
8分鐘,32,國稅局宿舍,1108500020,25.03433,121.575678,come,0100002000,20
9分鐘,33,松山商職(福德),1107700520,25.036219,121.5787474,come,0100002000,20
10分鐘,34,永春高中,1108000040,25.033484,121.5796725,come,0100002000,20
末班已過,1,捷運圓山站,1036700500,25.069744,121.520216,go,0100002100,21
末班已過,2,臺北市立美術館,1046100200,25.072224,121.5240266,go,0100002100,21
末班已過,3,圓山大飯店,1046201620,25.07727,121.5281673,go,0100002100,21
末班已過,4,中央電台,1046200420,25.077925,121.5300006,go,0100002100,21
末班已過,5,忠烈祠,1046200520,25.078004,121.5319142,go,0100002100,21
末班已過,6,經國七海文化園區,1046200020,25.077782,121.535397,go,0100002100,21
末班已過,7,堤頂大道口,1046201500,25.07839,121.56405,go,0100002100,21
末班已過,8,基湖站,1149200300,25.0801,121.56489,go,0100002100,21
末班已過,9,基湖路口,1149200520,25.08025,121.5662362,go,0100002100,21
末班已過,10,仁寶大樓,1149200020,25.079213,121.5684974,go,0100002100,21
末班已過,11,瑞光路393巷,1149200200,25.07768,121.57298,go,0100002100,21
末班已過,12,捷運港墘站(內湖高工),1144400220,25.080149,121.5746181,go,0100002100,21
末班已過,13,西湖圖書館(湖光教會),1144700021,25.078956,121.57768,go,0100002100,21
末班已過,14,內湖國小,1146400020,25.07929,121.5812755,go,0100002100,21
末班已過,15,達人高中(臺灣戲曲學院),1146400620,25.08114,121.5868,go,0100002100,21
末班已過,16,內湖派出所,1144900020,25.081788,121.5894925,go,0100002100,21
,1,成功路三段,1146000260,25.079854,121.589838,go,0100002100,21
,2,內湖高中,1147500060,25.079013,121.5883097,go,0100002100,21
,3,捷運文德站(碧湖公園),1147500260,25.078585,121.584249,go,0100002100,21
,4,湖光國宅,1147300060,25.07859,121.58078,go,0100002100,21
,5,西湖圖書館(湖光教會),1144700061,25.07889,121.578499,go,0100002100,21
,6,港墘派出所,1144800240,25.078636,121.57619,go,0100002100,21
,7,瑞光港墘路口,1149200760,25.077273,121.573134,go,0100002100,21
,8,仁寶大樓,1149200060,25.079478,121.568256,go,0100002100,21
,9,基湖路口,1149200560,25.080515,121.5659034,go,0100002100,21
,10,基湖站,1149200340,25.07973,121.5646071,go,0100002100,21
,11,堤頂大道口,1046201540,25.07666,121.56305,go,0100002100,21
,12,明水路三,1046200760,25.07742,121.54947,go,0100002100,21
,13,大直抽水站,1046500060,25.07757,121.54534,go,0100002100,21
,14,北安國中,1046500360,25.07768,121.54181,go,0100002100,21
,15,忠烈祠,1040400060,25.078002,121.5355521,go,0100002100,21
,16,中央電台,1046200460,25.078128,121.5301447,go,0100002100,21
,17,圓山大飯店,1046201660,25.077322,121.5279642,go,0100002100,21
,18,臺北市立美術館,1046100240,25.070066,121.5230951,go,0100002100,21
,19,花博公園,1045200160,25.068595,121.5207983,go,0100002100,21
,20,捷運圓山站,1036500240,25.069195,121.5199738,go,0100002100,21
,1,捷運圓山站,1036700500,25.069744,121.520216,come,0100002100,21
,2,臺北市立美術館,1046100200,25.072224,121.5240266,come,0100002100,21
,3,圓山大飯店,1046201620,25.07727,121.5281673,come,0100002100,21
,4,中央電台,1046200420,25.077925,121.5300006,come,0100002100,21
,5,忠烈祠,1046200520,25.078004,121.5319142,come,0100002100,21
,6,經國七海文化園區,1046200020,25.077782,121.535397,come,0100002100,21
,7,堤頂大道口,1046201500,25.07839,121.56405,come,0100002100,21
,8,基湖站,1149200300,25.0801,121.56489,come,0100002100,21
,9,基湖路口,1149200520,25.08025,121.5662362,come,0100002100,21
,10,仁寶大樓,1149200020,25.079213,121.5684974,come,0100002100,21
,11,瑞光路393巷,1149200200,25.07768,121.57298,come,0100002100,21
,12,捷運港墘站(內湖高工),1144400220,25.080149,121.5746181,come,0100002100,21
,13,西湖圖書館(湖光教會),1144700021,25.078956,121.57768,come,0100002100,21
,14,內湖國小,1146400020,25.07929,121.5812755,come,0100002100,21
,15,達人高中(臺灣戲曲學院),1146400620,25.08114,121.5868,come,0100002100,21
,16,內湖派出所,1144900020,25.081788,121.5894925,come,0100002100,21
末班已過,1,成功路三段,1146000260,25.079854,121.589838,come,0100002100,21
末班已過,2,內湖高中,1147500060,25.079013,121.5883097,come,0100002100,21
末班已過,3,捷運文德站(碧湖公園),1147500260,25.078585,121.584249,come,0100002100,21
末班已過,4,湖光國宅,1147300060,25.07859,121.58078,come,0100002100,21
末班已過,5,西湖圖書館(湖光教會),1144700061,25.07889,121.578499,come,0100002100,21
末班已過,6,港墘派出所,1144800240,25.078636,121.57619,come,0100002100,21
末班已過,7,瑞光港墘路口,1149200760,25.077273,121.573134,come,0100002100,21
末班已過,8,仁寶大樓,1149200060,25.079478,121.568256,come,0100002100,21
末班已過,9,基湖路口,1149200560,25.080515,121.5659034,come,0100002100,21
末班已過,10,基湖站,1149200340,25.07973,121.5646071,come,0100002100,21
末班已過,11,堤頂大道口,1046201540,25.07666,121.56305,come,0100002100,21
末班已過,12,明水路三,1046200760,25.07742,121.54947,come,0100002100,21
末班已過,13,大直抽水站,1046500060,25.07757,121.54534,come,0100002100,21
末班已過,14,北安國中,1046500360,25.07768,121.54181,come,0100002100,21
末班已過,15,忠烈祠,1040400060,25.078002,121.5355521,come,0100002100,21
末班已過,16,中央電台,1046200460,25.078128,121.5301447,come,0100002100,21
末班已過,17,圓山大飯店,1046201660,25.077322,121.5279642,come,0100002100,21
末班已過,18,臺北市立美術館,1046100240,25.070066,121.5230951,come,0100002100,21
末班已過,19,花博公園,1045200160,25.068595,121.5207983,come,0100002100,21
末班已過,20,捷運圓山站,1036500240,25.069195,121.5199738,come,0100002100,21
尚未發車,1,吳興街站,1104600100,25.02324,121.56976,go,0100002200,22
尚未發車,2,松仁路,1104600200,25.02453,121.5695997,go,0100002200,22
尚未發車,3,吳興國小(松仁),1104600000,25.026234,121.568628,go,0100002200,22
尚未發車,4,信義國中(莊敬),1105000200,25.027607,121.56521,go,0100002200,22
尚未發車,5,臺北醫學大學,1105000300,25.028241,121.5634888,go,0100002200,22
尚未發車,6,景新里,1104900400,25.029526,121.5623852,go,0100002200,22
尚未發車,7,世貿中心(莊敬),1104900100,25.031399,121.561326,go,0100002200,22
尚未發車,8,信義光復路口,1105200260,25.0331,121.55813,go,0100002200,22
3分鐘,9,信義通化街口,1067900460,25.033193,121.5546221,go,0100002200,22
4分鐘,10,捷運信義安和站(信義),1068500360,25.033223,121.552849,go,0100002200,22
5分鐘,11,信義敦化路口,1068500260,25.033377,121.549449,go,0100002200,22
7分鐘,12,信義大安路口,1068400060,25.033383,121.5461666,go,0100002200,22
8分鐘,13,捷運大安站(信義),1068400260,25.033404,121.5438266,go,0100002200,22
9分鐘,14,師大附中,1065800360,25.033382,121.542275,go,0100002200,22
10分鐘,15,信義建國路口,1065800160,25.033595,121.538468,go,0100002200,22
進站中,16,捷運大安森林公園站,1065600460,25.03355,121.5359159,go,0100002200,22
進站中,17,信義新生路口,1065600360,25.033627,121.5331327,go,0100002200,22
進站中,18,信義永康街口,1065100260,25.033765,121.5301447,go,0100002200,22
3分鐘,19,捷運東門站,1005700060,25.034232,121.526986,go,0100002200,22
4分鐘,20,信義杭州路口,1004800860,25.035417,121.5246296,go,0100002200,22
6分鐘,21,中正紀念堂,1004800960,25.03739,121.52056,go,0100002200,22
10分鐘,22,臺大醫院,1005500300,25.041403,121.5185552,go,0100002200,22
12分鐘,23,臺北車站(忠孝),1004100760,25.04654,121.5167218,go,0100002200,22
15分鐘,24,臺北車站(重慶),1004400240,25.046565,121.5132058,go,0100002200,22
進站中,25,重慶南路一段,1000500042,25.044432,121.513114,go,0100002200,22
進站中,26,二二八和平公園,1004500060,25.042368,121.5125439,go,0100002200,22
,1,博愛路,1004500100,25.043262,121.511555,go,0100002200,22
,2,臺北郵局,1004300000,25.046765,121.5112936,go,0100002200,22
,3,臺北車站(忠孝),1004700421,25.046815,121.5145215,go,0100002200,22
,4,捷運善導寺站,1005800120,25.044844,121.522629,go,0100002200,22
,5,開南中學,1005500240,25.041611,121.522214,go,0100002200,22
,6,仁愛林森路口,1005200141,25.039391,121.521603,go,0100002200,22
,7,信義杭州路口,1004800820,25.0357,121.5238361,go,0100002200,22
,8,捷運東門站,1064100120,25.034134,121.5269937,go,0100002200,22
,9,信義永康街口(捷運東門站),1065000320,25.033693,121.529727,go,0100002200,22
,10,信義新生路口,1006100020,25.03353,121.5323283,go,0100002200,22
,11,捷運大安森林公園站,1065600420,25.033496,121.5356316,go,0100002200,22
,12,信義建國路口,1065800120,25.033441,121.539045,go,0100002200,22
,13,捷運大安站(信義),1065800420,25.033323,121.5432319,go,0100002200,22
,14,信義大安路口,1068300220,25.0332,121.5456,go,0100002200,22
,15,信義敦化路口,1068100120,25.033262,121.548298,go,0100002200,22
,16,捷運信義安和站(信義),1068500320,25.033142,121.551229,go,0100002200,22
,17,信義通化街口,1067900420,25.033087,121.5539941,go,0100002200,22
,18,信義光復路口,1067900320,25.03311,121.55687,go,0100002200,22
,19,世貿中心(莊敬),1104900140,25.031446,121.56127,go,0100002200,22
,20,景新里,1104900440,25.02923,121.5624103,go,0100002200,22
,21,臺北醫學大學,1105000340,25.028273,121.5632643,go,0100002200,22
,22,信義國中(莊敬),1105000240,25.027402,121.565724,go,0100002200,22
,23,吳興國小(莊敬),1105000020,25.026725,121.568122,go,0100002200,22
,24,松仁路,1104600240,25.024432,121.569585,go,0100002200,22
,25,吳興街站,1104600100,25.02324,121.56976,go,0100002200,22
,1,吳興街站,1104600100,25.02324,121.56976,come,0100002200,22
,2,松仁路,1104600200,25.02453,121.5695997,come,0100002200,22
,3,吳興國小(松仁),1104600000,25.026234,121.568628,come,0100002200,22
,4,信義國中(莊敬),1105000200,25.027607,121.56521,come,0100002200,22
,5,臺北醫學大學,1105000300,25.028241,121.5634888,come,0100002200,22
,6,景新里,1104900400,25.029526,121.5623852,come,0100002200,22
,7,世貿中心(莊敬),1104900100,25.031399,121.561326,come,0100002200,22
,8,信義光復路口,1105200260,25.0331,121.55813,come,0100002200,22
,9,信義通化街口,1067900460,25.033193,121.5546221,come,0100002200,22
,10,捷運信義安和站(信義),1068500360,25.033223,121.552849,come,0100002200,22
,11,信義敦化路口,1068500260,25.033377,121.549449,come,0100002200,22
,12,信義大安路口,1068400060,25.033383,121.5461666,come,0100002200,22
,13,捷運大安站(信義),1068400260,25.033404,121.5438266,come,0100002200,22
,14,師大附中,1065800360,25.033382,121.542275,come,0100002200,22
,15,信義建國路口,1065800160,25.033595,121.538468,come,0100002200,22
,16,捷運大安森林公園站,1065600460,25.03355,121.5359159,come,0100002200,22
,17,信義新生路口,1065600360,25.033627,121.5331327,come,0100002200,22
,18,信義永康街口,1065100260,25.033765,121.5301447,come,0100002200,22
,19,捷運東門站,1005700060,25.034232,121.526986,come,0100002200,22
,20,信義杭州路口,1004800860,25.035417,121.5246296,come,0100002200,22
,21,中正紀念堂,1004800960,25.03739,121.52056,come,0100002200,22
,22,臺大醫院,1005500300,25.041403,121.5185552,come,0100002200,22
,23,臺北車站(忠孝),1004100760,25.04654,121.5167218,come,0100002200,22
,24,臺北車站(重慶),1004400240,25.046565,121.5132058,come,0100002200,22
,25,重慶南路一段,1000500042,25.044432,121.513114,come,0100002200,22
,26,二二八和平公園,1004500060,25.042368,121.5125439,come,0100002200,22
3分鐘,1,博愛路,1004500100,25.043262,121.511555,come,0100002200,22
5分鐘,2,臺北郵局,1004300000,25.046765,121.5112936,come,0100002200,22
7分鐘,3,臺北車站(忠孝),1004700421,25.046815,121.5145215,come,0100002200,22
10分鐘,4,捷運善導寺站,1005800120,25.044844,121.522629,come,0100002200,22
進站中,5,開南中學,1005500240,25.041611,121.522214,come,0100002200,22
進站中,6,仁愛林森路口,1005200141,25.039391,121.521603,come,0100002200,22
5分鐘,7,信義杭州路口,1004800820,25.0357,121.5238361,come,0100002200,22
6分鐘,8,捷運東門站,1064100120,25.034134,121.5269937,come,0100002200,22
7分鐘,9,信義永康街口(捷運東門站),1065000320,25.033693,121.529727,come,0100002200,22
8分鐘,10,信義新生路口,1006100020,25.03353,121.5323283,come,0100002200,22
9分鐘,11,捷運大安森林公園站,1065600420,25.033496,121.5356316,come,0100002200,22
10分鐘,12,信義建國路口,1065800120,25.033441,121.539045,come,0100002200,22
12分鐘,13,捷運大安站(信義),1065800420,25.033323,121.5432319,come,0100002200,22
進站中,14,信義大安路口,1068300220,25.0332,121.5456,come,0100002200,22
進站中,15,信義敦化路口,1068100120,25.033262,121.548298,come,0100002200,22
進站中,16,捷運信義安和站(信義),1068500320,25.033142,121.551229,come,0100002200,22
3分鐘,17,信義通化街口,1067900420,25.033087,121.5539941,come,0100002200,22
4分鐘,18,信義光復路口,1067900320,25.03311,121.55687,come,0100002200,22
8分鐘,19,世貿中心(莊敬),1104900140,25.031446,121.56127,come,0100002200,22
進站中,20,景新里,1104900440,25.02923,121.5624103,come,0100002200,22
進站中,21,臺北醫學大學,1105000340,25.028273,121.5632643,come,0100002200,22
3分鐘,22,信義國中(莊敬),1105000240,25.027402,121.565724,come,0100002200,22
4分鐘,23,吳興國小(莊敬),1105000020,25.026725,121.568122,come,0100002200,22
6分鐘,24,松仁路,1104600240,25.024432,121.569585,come,0100002200,22
7分鐘,25,吳興街站,1104600100,25.02324,121.56976,come,0100002200,22
預計20:50發車,1,社子國小二,1117200540,25.090017,121.5020824,go,0100002600,26
預計20:50發車,2,社子國小,1117200440,25.089646,121.5028759,go,0100002600,26
預計20:50發車,3,永倫里(南),1117200720,25.089298,121.504244,go,0100002600,26
預計20:50發車,4,社子派出所,1117200320,25.089332,121.5056145,go,0100002600,26
預計20:50發車,5,社子市場二,1117200240,25.088796,121.5081045,go,0100002600,26
預計20:50發車,6,社子市場,1117200140,25.088046,121.5087166,go,0100002600,26
預計20:50發車,7,福港街,1116800241,25.089884,121.517833,go,0100002600,26
預計20:50發車,8,承德路四段,1116800340,25.089268,121.5204586,go,0100002600,26
預計20:50發車,9,大南路口,1116700040,25.088519,121.5215607,go,0100002600,26
預計20:50發車,10,圓山皇宮大廈,1116600140,25.083468,121.5233264,go,0100002600,26
進站中,11,劍潭國小,1116600240,25.081056,121.5223096,go,0100002600,26
3分鐘,12,明倫高中,1036700240,25.07344,121.5191524,go,0100002600,26
4分鐘,13,庫倫街口,1036600040,25.071066,121.5183341,go,0100002600,26
7分鐘,14,民族承德路口,1036500040,25.067913,121.5182673,go,0100002600,26
8分鐘,15,大同國小,1036300040,25.064874,121.5181,go,0100002600,26
9分鐘,16,民權中山路口,1045200220,25.062714,121.5223009,go,0100002600,26
10分鐘,17,捷運中山國小站,1045100020,25.062668,121.5253813,go,0100002600,26
14分鐘,18,民權吉林路口,1046800020,25.062546,121.5300637,go,0100002600,26
15分鐘,19,捷運行天宮站(松江路),1046800240,25.060535,121.5331063,go,0100002600,26
16分鐘,20,長春松江路口,1048500040,25.055006,121.533011,go,0100002600,26
,1,南京吉林路口,1045700260,25.052112,121.5303325,go,0100002600,26
,2,南京林森路口,1045400160,25.052167,121.5257174,go,0100002600,26
,3,捷運中山站(志仁高中),1035200160,25.052867,121.519866,go,0100002600,26
,4,建成公園,1035300200,25.05462,121.51825,go,0100002600,26
,5,民生西路口,1035300100,25.05801,121.51829,go,0100002600,26
,6,成淵高中,1035400100,25.060893,121.5184069,go,0100002600,26
,7,防癆協會,1036400200,25.06357,121.51846,go,0100002600,26
,8,大同國小,1035300000,25.066329,121.5185171,go,0100002600,26
,9,民族承德路口,1036500000,25.06894,121.5185487,go,0100002600,26
,10,庫倫街口,1036700400,25.072586,121.5190411,go,0100002600,26
,11,明倫高中,1036800000,25.074249,121.5199745,go,0100002600,26
,12,劍潭國小,1116700200,25.081066,121.5227513,go,0100002600,26
,13,圓山皇宮大廈,1116600100,25.083356,121.523596,go,0100002600,26
,14,大南路口,1116700000,25.0879,121.52225,go,0100002600,26
,15,士商路,1116800100,25.091,121.51989,go,0100002600,26
,16,陽明高中,1116500860,25.092141,121.517889,go,0100002600,26
,17,社子市場,1117200100,25.087505,121.5090743,go,0100002600,26
,18,社園里,1117200600,25.089056,121.5079873,go,0100002600,26
,19,社子派出所,1117200360,25.089599,121.5064251,go,0100002600,26
,20,永倫里(南),1117200760,25.089467,121.503968,go,0100002600,26
,21,社子國小,1117200400,25.089904,121.5025776,go,0100002600,26
,22,永倫里(延平),1117500100,25.091148,121.500682,go,0100002600,26
,1,社子國小二,1117200540,25.090017,121.5020824,come,0100002600,26
,2,社子國小,1117200440,25.089646,121.5028759,come,0100002600,26
,3,永倫里(南),1117200720,25.089298,121.504244,come,0100002600,26
,4,社子派出所,1117200320,25.089332,121.5056145,come,0100002600,26
,5,社子市場二,1117200240,25.088796,121.5081045,come,0100002600,26
,6,社子市場,1117200140,25.088046,121.5087166,come,0100002600,26
,7,福港街,1116800241,25.089884,121.517833,come,0100002600,26
,8,承德路四段,1116800340,25.089268,121.5204586,come,0100002600,26
,9,大南路口,1116700040,25.088519,121.5215607,come,0100002600,26
,10,圓山皇宮大廈,1116600140,25.083468,121.5233264,come,0100002600,26
,11,劍潭國小,1116600240,25.081056,121.5223096,come,0100002600,26
,12,明倫高中,1036700240,25.07344,121.5191524,come,0100002600,26
,13,庫倫街口,1036600040,25.071066,121.5183341,come,0100002600,26
,14,民族承德路口,1036500040,25.067913,121.5182673,come,0100002600,26
,15,大同國小,1036300040,25.064874,121.5181,come,0100002600,26
,16,民權中山路口,1045200220,25.062714,121.5223009,come,0100002600,26
,17,捷運中山國小站,1045100020,25.062668,121.5253813,come,0100002600,26
,18,民權吉林路口,1046800020,25.062546,121.5300637,come,0100002600,26
,19,捷運行天宮站(松江路),1046800240,25.060535,121.5331063,come,0100002600,26
,20,長春松江路口,1048500040,25.055006,121.533011,come,0100002600,26
20分鐘,1,南京吉林路口,1045700260,25.052112,121.5303325,come,0100002600,26
21分鐘,2,南京林森路口,1045400160,25.052167,121.5257174,come,0100002600,26
24分鐘,3,捷運中山站(志仁高中),1035200160,25.052867,121.519866,come,0100002600,26
27分鐘,4,建成公園,1035300200,25.05462,121.51825,come,0100002600,26
28分鐘,5,民生西路口,1035300100,25.05801,121.51829,come,0100002600,26
28分鐘,6,成淵高中,1035400100,25.060893,121.5184069,come,0100002600,26
30分鐘,7,防癆協會,1036400200,25.06357,121.51846,come,0100002600,26
32分鐘,8,大同國小,1035300000,25.066329,121.5185171,come,0100002600,26
34分鐘,9,民族承德路口,1036500000,25.06894,121.5185487,come,0100002600,26
36分鐘,10,庫倫街口,1036700400,25.072586,121.5190411,come,0100002600,26
37分鐘,11,明倫高中,1036800000,25.074249,121.5199745,come,0100002600,26
39分鐘,12,劍潭國小,1116700200,25.081066,121.5227513,come,0100002600,26
40分鐘,13,圓山皇宮大廈,1116600100,25.083356,121.523596,come,0100002600,26
43分鐘,14,大南路口,1116700000,25.0879,121.52225,come,0100002600,26
44分鐘,15,士商路,1116800100,25.091,121.51989,come,0100002600,26
46分鐘,16,陽明高中,1116500860,25.092141,121.517889,come,0100002600,26
49分鐘,17,社子市場,1117200100,25.087505,121.5090743,come,0100002600,26
52分鐘,18,社園里,1117200600,25.089056,121.5079873,come,0100002600,26
53分鐘,19,社子派出所,1117200360,25.089599,121.5064251,come,0100002600,26
54分鐘,20,永倫里(南),1117200760,25.089467,121.503968,come,0100002600,26
55分鐘,21,社子國小,1117200400,25.089904,121.5025776,come,0100002600,26
55分鐘,22,永倫里(延平),1117500100,25.091148,121.500682,come,0100002600,26
末班已過,1,明水路一,1046600140,25.083327,121.550812,go,0100002800,28
末班已過,2,明水路二,1046600240,25.07972,121.55214,go,0100002800,28
末班已過,3,明水路三,1046200760,25.07742,121.54947,go,0100002800,28
末班已過,4,大直抽水站,1046500060,25.07757,121.54534,go,0100002800,28
末班已過,5,永安里,1046500420,25.078877,121.546182,go,0100002800,28
末班已過,6,捷運大直站,1046500520,25.080216,121.5479855,go,0100002800,28
末班已過,7,植福宮,1046300000,25.081609,121.5488002,go,0100002800,28
末班已過,8,自強隧道(大直教會),1046400100,25.083737,121.5493072,go,0100002800,28
末班已過,9,自強隧道,1046400020,25.085862,121.5518959,go,0100002800,28
進站中,10,捷運劍南路站,1046400320,25.08484,121.555253,go,0100002800,28
4分鐘,11,美麗華,1144600120,25.084538,121.5581969,go,0100002800,28
5分鐘,12,文湖國小,1144600020,25.084151,121.5615165,go,0100002800,28
6分鐘,13,治磐新村,1149300020,25.082945,121.5638416,go,0100002800,28
7分鐘,14,捷運西湖站,1149300220,25.082197,121.5658848,go,0100002800,28
9分鐘,15,恕德家商,1149300120,25.081963,121.5690454,go,0100002800,28
10分鐘,16,麗山街,1144400420,25.081132,121.57184,go,0100002800,28
12分鐘,17,捷運港墘站(內湖高工),1144400220,25.080149,121.5746181,go,0100002800,28
13分鐘,18,西湖圖書館(湖光教會),1144700021,25.078956,121.57768,go,0100002800,28
15分鐘,19,內湖國小,1146400020,25.07929,121.5812755,go,0100002800,28
17分鐘,20,達人高中(臺灣戲曲學院),1146400620,25.08114,121.5868,go,0100002800,28
18分鐘,21,內湖派出所,1144900020,25.081788,121.5894925,go,0100002800,28
20分鐘,22,成功路三段,1146000260,25.079854,121.589838,go,0100002800,28
21分鐘,23,方濟中學,1146000140,25.076435,121.5900771,go,0100002800,28
22分鐘,24,將軍嶺,1147200240,25.073372,121.58972,go,0100002800,28
27分鐘,25,三總內湖站,1149000100,25.071852,121.592095,go,0100002800,28
30分鐘,26,國防醫學中心,1147200140,25.071037,121.5898699,go,0100002800,28
30分鐘,27,湖興,1146700140,25.06803,121.5906611,go,0100002800,28
31分鐘,28,上灣仔,1146700040,25.067,121.5905214,go,0100002800,28
34分鐘,29,石潭公園(成功),1146700240,25.061041,121.591015,go,0100002800,28
35分鐘,30,南港分局(向陽),1155100340,25.055748,121.5937887,go,0100002800,28
36分鐘,31,玉成國小,1157000060,25.054384,121.5928002,go,0100002800,28
37分鐘,32,西新里(新新公園),1155400060,25.053503,121.5899925,go,0100002800,28
38分鐘,33,南港路三段,1155400260,25.053048,121.5877474,go,0100002800,28
39分鐘,34,松山磚廠,1155400160,25.05265,121.5850508,go,0100002800,28
41分鐘,35,玉成里,1157700060,25.050922,121.5809118,go,0100002800,28
進站中,36,松山車站(八德),1056700062,25.050168,121.576598,go,0100002800,28
進站中,37,松山農會,1056600060,25.050073,121.574914,go,0100002800,28
3分鐘,38,饒河街觀光夜市(八德),1056600460,25.05,121.5716,go,0100002800,28
5分鐘,39,基隆路口二,1106900140,25.047993,121.5682545,go,0100002800,28
6分鐘,40,松山高中(基隆路),1107000340,25.044449,121.5662804,go,0100002800,28
9分鐘,41,市政府(松高),1107300220,25.03902,121.56453,go,0100002800,28
12分鐘,42,市政府(松智),1104700340,25.036834,121.5653434,go,0100002800,28
13分鐘,43,101國際購物中心,1100100040,25.034261,121.565358,go,0100002800,28
15分鐘,44,捷運台北101/世貿站(信義),1104900360,25.033242,121.5645984,go,0100002800,28
,1,捷運台北101/世貿站(市府),1100100100,25.034512,121.5635759,go,0100002800,28
,2,市政府(市府),1100800100,25.038366,121.5636251,go,0100002800,28
,3,松山高中(基隆路),1107000300,25.044234,121.5664817,go,0100002800,28
,4,基隆路口,1106900000,25.04831,121.568923,go,0100002800,28
,5,饒河街觀光夜市(八德),1056600420,25.049815,121.5714654,go,0100002800,28
,6,松山農會,1056600020,25.049902,121.5738483,go,0100002800,28
,7,松山車站(八德),1056700020,25.049975,121.5772464,go,0100002800,28
,8,玉成里,1157700020,25.050867,121.5809831,go,0100002800,28
,9,松山磚廠,1156300220,25.052203,121.5842017,go,0100002800,28
,10,南港路三段,1156300320,25.052936,121.5872289,go,0100002800,28
,11,西新里(新新公園),1156300020,25.053286,121.5896618,go,0100002800,28
,12,玉成國小,1156300120,25.054083,121.5921075,go,0100002800,28
,13,南港分局(向陽),1155100300,25.055334,121.5944152,go,0100002800,28
,14,石潭公園(成功),1147000400,25.061289,121.591281,go,0100002800,28
,15,上灣仔,1146700000,25.066818,121.5907148,go,0100002800,28
,16,湖興,1146700100,25.067861,121.5908537,go,0100002800,28
,17,國防醫學中心,1147200100,25.07121,121.5900311,go,0100002800,28
,18,三總內湖站,1149000200,25.071852,121.592095,go,0100002800,28
,19,將軍嶺,1147200200,25.073809,121.5900167,go,0100002800,28
,20,方濟中學,1146200000,25.076884,121.5902313,go,0100002800,28
,21,成功路三段,1146000200,25.079617,121.5899398,go,0100002800,28
,22,內湖派出所,1147200060,25.081987,121.590028,go,0100002800,28
,23,達人高中(臺灣戲曲學院),1146400660,25.08132,121.58718,go,0100002800,28
,24,內湖國小,1146400060,25.079397,121.581399,go,0100002800,28
,25,西湖圖書館(湖光教會),1144700060,25.079106,121.5779835,go,0100002800,28
,26,捷運港墘站(內湖高工),1144400260,25.079836,121.5761086,go,0100002800,28
,27,麗山國中,1144400360,25.080638,121.5738603,go,0100002800,28
,28,麗山街,1144400460,25.081473,121.571386,go,0100002800,28
,29,恕德家商,1144400060,25.082118,121.5694613,go,0100002800,28
,30,捷運西湖站,1144400160,25.082421,121.5658681,go,0100002800,28
,31,治磐新村,1144200160,25.083069,121.5640985,go,0100002800,28
,32,文湖國小,1144600060,25.084381,121.5615357,go,0100002800,28
,33,美麗華,1046400260,25.084817,121.5581193,go,0100002800,28
,34,捷運劍南路站,1046400360,25.085271,121.5546799,go,0100002800,28
,35,明水路一,1046600140,25.083327,121.550812,go,0100002800,28
,36,明水路二,1046600240,25.07972,121.55214,go,0100002800,28
,37,明水路三,1046200760,25.07742,121.54947,go,0100002800,28
,38,大直抽水站,1046500060,25.07757,121.54534,go,0100002800,28
,39,永安里,1046500420,25.078877,121.546182,go,0100002800,28
,40,捷運大直站,1046500520,25.080216,121.5479855,go,0100002800,28
,41,植福宮,1046300000,25.081609,121.5488002,go,0100002800,28
,42,自強隧道(大直教會),1046400100,25.083737,121.5493072,go,0100002800,28
,1,明水路一,1046600140,25.083327,121.550812,come,0100002800,28
,2,明水路二,1046600240,25.07972,121.55214,come,0100002800,28
,3,明水路三,1046200760,25.07742,121.54947,come,0100002800,28
,4,大直抽水站,1046500060,25.07757,121.54534,come,0100002800,28
,5,永安里,1046500420,25.078877,121.546182,come,0100002800,28
,6,捷運大直站,1046500520,25.080216,121.5479855,come,0100002800,28
,7,植福宮,1046300000,25.081609,121.5488002,come,0100002800,28
,8,自強隧道(大直教會),1046400100,25.083737,121.5493072,come,0100002800,28
,9,自強隧道,1046400020,25.085862,121.5518959,come,0100002800,28
,10,捷運劍南路站,1046400320,25.08484,121.555253,come,0100002800,28
,11,美麗華,1144600120,25.084538,121.5581969,come,0100002800,28
,12,文湖國小,1144600020,25.084151,121.5615165,come,0100002800,28
,13,治磐新村,1149300020,25.082945,121.5638416,come,0100002800,28
,14,捷運西湖站,1149300220,25.082197,121.5658848,come,0100002800,28
,15,恕德家商,1149300120,25.081963,121.5690454,come,0100002800,28
,16,麗山街,1144400420,25.081132,121.57184,come,0100002800,28
,17,捷運港墘站(內湖高工),1144400220,25.080149,121.5746181,come,0100002800,28
,18,西湖圖書館(湖光教會),1144700021,25.078956,121.57768,come,0100002800,28
,19,內湖國小,1146400020,25.07929,121.5812755,come,0100002800,28
,20,達人高中(臺灣戲曲學院),1146400620,25.08114,121.5868,come,0100002800,28
,21,內湖派出所,1144900020,25.081788,121.5894925,come,0100002800,28
,22,成功路三段,1146000260,25.079854,121.589838,come,0100002800,28
,23,方濟中學,1146000140,25.076435,121.5900771,come,0100002800,28
,24,將軍嶺,1147200240,25.073372,121.58972,come,0100002800,28
,25,三總內湖站,1149000100,25.071852,121.592095,come,0100002800,28
,26,國防醫學中心,1147200140,25.071037,121.5898699,come,0100002800,28
,27,湖興,1146700140,25.06803,121.5906611,come,0100002800,28
,28,上灣仔,1146700040,25.067,121.5905214,come,0100002800,28
,29,石潭公園(成功),1146700240,25.061041,121.591015,come,0100002800,28
,30,南港分局(向陽),1155100340,25.055748,121.5937887,come,0100002800,28
,31,玉成國小,1157000060,25.054384,121.5928002,come,0100002800,28
,32,西新里(新新公園),1155400060,25.053503,121.5899925,come,0100002800,28
,33,南港路三段,1155400260,25.053048,121.5877474,come,0100002800,28
,34,松山磚廠,1155400160,25.05265,121.5850508,come,0100002800,28
,35,玉成里,1157700060,25.050922,121.5809118,come,0100002800,28
,36,松山車站(八德),1056700062,25.050168,121.576598,come,0100002800,28
,37,松山農會,1056600060,25.050073,121.574914,come,0100002800,28
,38,饒河街觀光夜市(八德),1056600460,25.05,121.5716,come,0100002800,28
,39,基隆路口二,1106900140,25.047993,121.5682545,come,0100002800,28
,40,松山高中(基隆路),1107000340,25.044449,121.5662804,come,0100002800,28
,41,市政府(松高),1107300220,25.03902,121.56453,come,0100002800,28
,42,市政府(松智),1104700340,25.036834,121.5653434,come,0100002800,28
,43,101國際購物中心,1100100040,25.034261,121.565358,come,0100002800,28
,44,捷運台北101/世貿站(信義),1104900360,25.033242,121.5645984,come,0100002800,28
16分鐘,1,捷運台北101/世貿站(市府),1100100100,25.034512,121.5635759,come,0100002800,28
17分鐘,2,市政府(市府),1100800100,25.038366,121.5636251,come,0100002800,28
21分鐘,3,松山高中(基隆路),1107000300,25.044234,121.5664817,come,0100002800,28
23分鐘,4,基隆路口,1106900000,25.04831,121.568923,come,0100002800,28
25分鐘,5,饒河街觀光夜市(八德),1056600420,25.049815,121.5714654,come,0100002800,28
26分鐘,6,松山農會,1056600020,25.049902,121.5738483,come,0100002800,28
27分鐘,7,松山車站(八德),1056700020,25.049975,121.5772464,come,0100002800,28
29分鐘,8,玉成里,1157700020,25.050867,121.5809831,come,0100002800,28
32分鐘,9,松山磚廠,1156300220,25.052203,121.5842017,come,0100002800,28
33分鐘,10,南港路三段,1156300320,25.052936,121.5872289,come,0100002800,28
34分鐘,11,西新里(新新公園),1156300020,25.053286,121.5896618,come,0100002800,28
35分鐘,12,玉成國小,1156300120,25.054083,121.5921075,come,0100002800,28
36分鐘,13,南港分局(向陽),1155100300,25.055334,121.5944152,come,0100002800,28
38分鐘,14,石潭公園(成功),1147000400,25.061289,121.591281,come,0100002800,28
40分鐘,15,上灣仔,1146700000,25.066818,121.5907148,come,0100002800,28
進站中,16,湖興,1146700100,25.067861,121.5908537,come,0100002800,28
進站中,17,國防醫學中心,1147200100,25.07121,121.5900311,come,0100002800,28
4分鐘,18,三總內湖站,1149000200,25.071852,121.592095,come,0100002800,28
6分鐘,19,將軍嶺,1147200200,25.073809,121.5900167,come,0100002800,28
7分鐘,20,方濟中學,1146200000,25.076884,121.5902313,come,0100002800,28
8分鐘,21,成功路三段,1146000200,25.079617,121.5899398,come,0100002800,28
12分鐘,22,內湖派出所,1147200060,25.081987,121.590028,come,0100002800,28
14分鐘,23,達人高中(臺灣戲曲學院),1146400660,25.08132,121.58718,come,0100002800,28
16分鐘,24,內湖國小,1146400060,25.079397,121.581399,come,0100002800,28
18分鐘,25,西湖圖書館(湖光教會),1144700060,25.079106,121.5779835,come,0100002800,28
19分鐘,26,捷運港墘站(內湖高工),1144400260,25.079836,121.5761086,come,0100002800,28
20分鐘,27,麗山國中,1144400360,25.080638,121.5738603,come,0100002800,28
21分鐘,28,麗山街,1144400460,25.081473,121.571386,come,0100002800,28
22分鐘,29,恕德家商,1144400060,25.082118,121.5694613,come,0100002800,28
24分鐘,30,捷運西湖站,1144400160,25.082421,121.5658681,come,0100002800,28
25分鐘,31,治磐新村,1144200160,25.083069,121.5640985,come,0100002800,28
25分鐘,32,文湖國小,1144600060,25.084381,121.5615357,come,0100002800,28
27分鐘,33,美麗華,1046400260,25.084817,121.5581193,come,0100002800,28
29分鐘,34,捷運劍南路站,1046400360,25.085271,121.5546799,come,0100002800,28
31分鐘,35,明水路一,1046600140,25.083327,121.550812,come,0100002800,28
32分鐘,36,明水路二,1046600240,25.07972,121.55214,come,0100002800,28
34分鐘,37,明水路三,1046200760,25.07742,121.54947,come,0100002800,28
35分鐘,38,大直抽水站,1046500060,25.07757,121.54534,come,0100002800,28
36分鐘,39,永安里,1046500420,25.078877,121.546182,come,0100002800,28
38分鐘,40,捷運大直站,1046500520,25.080216,121.5479855,come,0100002800,28
39分鐘,41,植福宮,1046300000,25.081609,121.5488002,come,0100002800,28
40分鐘,42,自強隧道(大直教會),1046400100,25.083737,121.5493072,come,0100002800,28
32分鐘,1,吳興街站,1104600100,25.02324,121.56976,go,0100003200,32
32分鐘,2,松仁路,1104600200,25.02453,121.5695997,go,0100003200,32
32分鐘,3,吳興國小(松仁),1104600000,25.026234,121.568628,go,0100003200,32
34分鐘,4,信義國中(松仁),1105900000,25.02881,121.568464,go,0100003200,32
34分鐘,5,松平路口,1105800300,25.03124,121.56839,go,0100003200,32
36分鐘,6,信義松仁路口(松仁),1105800400,25.03369,121.5684464,go,0100003200,32
37分鐘,7,興雅國中,1107300700,25.03724,121.568534,go,0100003200,32
39分鐘,8,消防局(松仁),1107300400,25.039991,121.568621,go,0100003200,32
40分鐘,9,市立工農,1106000020,25.040854,121.5726502,go,0100003200,32
41分鐘,10,捷運永春站(忠孝),1106100220,25.040733,121.575809,go,0100003200,32
44分鐘,11,捷運永春站(松山),1106100100,25.04195,121.5778998,go,0100003200,32
44分鐘,12,雙永國小,1106200000,25.043558,121.5779186,go,0100003200,32
45分鐘,13,永吉松山路口,1106200100,25.045005,121.5779069,go,0100003200,32
47分鐘,14,松山車站(松山),1109000000,25.047269,121.5779129,go,0100003200,32
49分鐘,15,松山車站,1056700120,25.049806,121.578206,go,0100003200,32
52分鐘,16,五分埔商圈(中坡北),1156200040,25.04799,121.58003,go,0100003200,32
54分鐘,17,捷運後山埤站(永吉),1156200320,25.045234,121.5819452,go,0100003200,32
55分鐘,18,捷運後山埤站(玉成),1156200220,25.045088,121.5829419,go,0100003200,32
56分鐘,19,聯合醫院忠孝院區(同德),1155600220,25.046173,121.5864802,go,0100003200,32
57分鐘,20,修德國小,1155600020,25.046351,121.5902235,go,0100003200,32
58分鐘,21,南港公園,1156900020,25.045951,121.5921143,go,0100003200,32
59分鐘,22,南港公園一,1156900140,25.043925,121.5927772,go,0100003200,32
預計20:15發車,23,南港花園社區四,1156900340,25.039482,121.593565,go,0100003200,32
預計20:15發車,24,南港花園社區三,1156900260,25.038953,121.5926327,go,0100003200,32
預計20:15發車,25,南港花園社區二,1158200100,25.040031,121.5911518,go,0100003200,32
預計20:15發車,26,南港花園社區一,1158200040,25.041068,121.591596,go,0100003200,32
預計20:15發車,27,南港花園社區五,1158200320,25.04004,121.5926,go,0100003200,32
,1,南港公園一,1156900100,25.043971,121.5929045,go,0100003200,32
,2,南港公園,1156900060,25.04584,121.59264,go,0100003200,32
,3,修德國小,1155600060,25.046622,121.5894869,go,0100003200,32
,4,聯合醫院忠孝院區(同德),1155900360,25.046237,121.5862517,go,0100003200,32
,5,捷運後山埤站(玉成),1156200260,25.04521,121.5829604,go,0100003200,32
,6,捷運後山埤站(永吉),1156200360,25.045397,121.581802,go,0100003200,32
,7,五分埔商圈(中坡北),1156200000,25.047232,121.58077,go,0100003200,32
,8,松山車站(松隆),1108700060,25.048183,121.5789197,go,0100003200,32
,9,松山車站(松山),1109000040,25.047159,121.577685,go,0100003200,32
,10,永吉松山路口,1108900040,25.044863,121.5776905,go,0100003200,32
,11,捷運永春站(松山),1106100140,25.041936,121.577654,go,0100003200,32
,12,捷運永春站(忠孝),1106100260,25.040967,121.575743,go,0100003200,32
,13,市立工農,1106600060,25.041089,121.5724391,go,0100003200,32
,14,消防局(松仁),1107300441,25.038604,121.568284,go,0100003200,32
,15,興雅國中,1107300740,25.037232,121.5682685,go,0100003200,32
,16,信義松仁路口(松仁),1105800440,25.034535,121.568236,go,0100003200,32
,17,松平路口,1104600340,25.030795,121.568193,go,0100003200,32
,18,信義國中(松仁),1105900040,25.02881,121.568164,go,0100003200,32
,19,吳興國小(松仁),1104600040,25.026231,121.568554,go,0100003200,32
,20,松仁路,1104600240,25.024432,121.569585,go,0100003200,32
,21,吳興街站,1104600100,25.02324,121.56976,go,0100003200,32
,1,吳興街站,1104600100,25.02324,121.56976,come,0100003200,32
,2,松仁路,1104600200,25.02453,121.5695997,come,0100003200,32
,3,吳興國小(松仁),1104600000,25.026234,121.568628,come,0100003200,32
,4,信義國中(松仁),1105900000,25.02881,121.568464,come,0100003200,32
,5,松平路口,1105800300,25.03124,121.56839,come,0100003200,32
,6,信義松仁路口(松仁),1105800400,25.03369,121.5684464,come,0100003200,32
,7,興雅國中,1107300700,25.03724,121.568534,come,0100003200,32
,8,消防局(松仁),1107300400,25.039991,121.568621,come,0100003200,32
,9,市立工農,1106000020,25.040854,121.5726502,come,0100003200,32
,10,捷運永春站(忠孝),1106100220,25.040733,121.575809,come,0100003200,32
,11,捷運永春站(松山),1106100100,25.04195,121.5778998,come,0100003200,32
,12,雙永國小,1106200000,25.043558,121.5779186,come,0100003200,32
,13,永吉松山路口,1106200100,25.045005,121.5779069,come,0100003200,32
,14,松山車站(松山),1109000000,25.047269,121.5779129,come,0100003200,32
,15,松山車站,1056700120,25.049806,121.578206,come,0100003200,32
,16,五分埔商圈(中坡北),1156200040,25.04799,121.58003,come,0100003200,32
,17,捷運後山埤站(永吉),1156200320,25.045234,121.5819452,come,0100003200,32
,18,捷運後山埤站(玉成),1156200220,25.045088,121.5829419,come,0100003200,32
,19,聯合醫院忠孝院區(同德),1155600220,25.046173,121.5864802,come,0100003200,32
,20,修德國小,1155600020,25.046351,121.5902235,come,0100003200,32
,21,南港公園,1156900020,25.045951,121.5921143,come,0100003200,32
,22,南港公園一,1156900140,25.043925,121.5927772,come,0100003200,32
,23,南港花園社區四,1156900340,25.039482,121.593565,come,0100003200,32
,24,南港花園社區三,1156900260,25.038953,121.5926327,come,0100003200,32
,25,南港花園社區二,1158200100,25.040031,121.5911518,come,0100003200,32
,26,南港花園社區一,1158200040,25.041068,121.591596,come,0100003200,32
,27,南港花園社區五,1158200320,25.04004,121.5926,come,0100003200,32
預計20:15發車,1,南港公園一,1156900100,25.043971,121.5929045,come,0100003200,32
預計20:15發車,2,南港公園,1156900060,25.04584,121.59264,come,0100003200,32
預計20:15發車,3,修德國小,1155600060,25.046622,121.5894869,come,0100003200,32
預計20:15發車,4,聯合醫院忠孝院區(同德),1155900360,25.046237,121.5862517,come,0100003200,32
預計20:15發車,5,捷運後山埤站(玉成),1156200260,25.04521,121.5829604,come,0100003200,32
預計20:15發車,6,捷運後山埤站(永吉),1156200360,25.045397,121.581802,come,0100003200,32
預計20:15發車,7,五分埔商圈(中坡北),1156200000,25.047232,121.58077,come,0100003200,32
進站中,8,松山車站(松隆),1108700060,25.048183,121.5789197,come,0100003200,32
進站中,9,松山車站(松山),1109000040,25.047159,121.577685,come,0100003200,32
3分鐘,10,永吉松山路口,1108900040,25.044863,121.5776905,come,0100003200,32
3分鐘,11,捷運永春站(松山),1106100140,25.041936,121.577654,come,0100003200,32
6分鐘,12,捷運永春站(忠孝),1106100260,25.040967,121.575743,come,0100003200,32
7分鐘,13,市立工農,1106600060,25.041089,121.5724391,come,0100003200,32
11分鐘,14,消防局(松仁),1107300441,25.038604,121.568284,come,0100003200,32
12分鐘,15,興雅國中,1107300740,25.037232,121.5682685,come,0100003200,32
15分鐘,16,信義松仁路口(松仁),1105800440,25.034535,121.568236,come,0100003200,32
16分鐘,17,松平路口,1104600340,25.030795,121.568193,come,0100003200,32
16分鐘,18,信義國中(松仁),1105900040,25.02881,121.568164,come,0100003200,32
17分鐘,19,吳興國小(松仁),1104600040,25.026231,121.568554,come,0100003200,32
19分鐘,20,松仁路,1104600240,25.024432,121.569585,come,0100003200,32
20分鐘,21,吳興街站,1104600100,25.02324,121.56976,come,0100003200,32
17分鐘,1,永春高中,1108000000,25.033446,121.5797804,go,0100003300,33
17分鐘,2,松山商職(松山),1107600100,25.036029,121.578609,go,0100003300,33
末班已過,3,永春公寓,1107600000,25.040006,121.5779488,go,0100003300,33
末班已過,4,永春里(忠孝),1107700120,25.041101,121.5785081,go,0100003300,33
末班已過,5,春光公園,1106200220,25.042737,121.580888,go,0100003300,33
末班已過,6,忠孝大道路口,1107700440,25.042363,121.581579,go,0100003300,33
末班已過,7,大道路,1107700040,25.040157,121.5827287,go,0100003300,33
末班已過,8,信義行政中心(奉天宮),1107800160,25.03789,121.58325,go,0100003300,33
末班已過,9,松友新村,1107700660,25.037055,121.580964,go,0100003300,33
末班已過,10,松山商職(福德),1107700560,25.036372,121.5787375,go,0100003300,33
18分鐘,11,國業里,1107800360,25.03555,121.57704,go,0100003300,33
18分鐘,12,國稅局宿舍,1108500060,25.034442,121.575497,go,0100003300,33
22分鐘,13,松平路口,1104600340,25.030795,121.568193,go,0100003300,33
22分鐘,14,信義國中(松仁),1105900040,25.02881,121.568164,go,0100003300,33
23分鐘,15,吳興國小(莊敬),1105800260,25.026855,121.5680489,go,0100003300,33
25分鐘,16,信義國中(莊敬),1105000200,25.027607,121.56521,go,0100003300,33
26分鐘,17,臺北醫學大學,1105000300,25.028241,121.5634888,go,0100003300,33
27分鐘,18,景新里,1104900400,25.029526,121.5623852,go,0100003300,33
28分鐘,19,世貿中心(莊敬),1104900100,25.031399,121.561326,go,0100003300,33
5分鐘,20,信義光復路口,1105200260,25.0331,121.55813,go,0100003300,33
7分鐘,21,信義通化街口,1067900460,25.033193,121.5546221,go,0100003300,33
8分鐘,22,捷運信義安和站(信義),1068500360,25.033223,121.552849,go,0100003300,33
9分鐘,23,信義敦化路口,1068500260,25.033377,121.549449,go,0100003300,33
11分鐘,24,仁愛國中,1068900100,25.035951,121.5490897,go,0100003300,33
13分鐘,25,安和敦化路口,1068900400,25.039761,121.5489579,go,0100003300,33
16分鐘,26,捷運忠孝敦化站,1069000200,25.043012,121.549174,go,0100003300,33
18分鐘,27,市民大道口,1055700000,25.045757,121.5491941,go,0100003300,33
20分鐘,28,市立體育場,1054900200,25.048949,121.549204,go,0100003300,33
22分鐘,29,臺北小巨蛋,1055000000,25.05258,121.54933,go,0100003300,33
24分鐘,30,長庚醫院,1050800000,25.05656,121.54929,go,0100003300,33
25分鐘,31,富錦街口,1057200100,25.0596,121.55006,go,0100003300,33
28分鐘,32,民權敦化路口,1054100060,25.062035,121.5482873,go,0100003300,33
進站中,33,五常街口,1047600200,25.064149,121.5444202,go,0100003300,33
7分鐘,34,大直國小,1046500220,25.079711,121.5453154,go,0100003300,33
8分鐘,35,捷運大直站,1046500520,25.080216,121.5479855,go,0100003300,33
9分鐘,36,植福宮,1046300000,25.081609,121.5488002,go,0100003300,33
10分鐘,37,自強隧道(大直教會),1046400100,25.083737,121.5493072,go,0100003300,33
12分鐘,38,自強隧道,1046400020,25.085862,121.5518959,go,0100003300,33
13分鐘,39,捷運劍南路站,1046400320,25.08484,121.555253,go,0100003300,33
14分鐘,40,美麗華,1144600120,25.084538,121.5581969,go,0100003300,33
,1,敬業四路,1046201940,25.081855,121.5584464,go,0100003300,33
,2,大直美堤花園二,1046600660,25.08002,121.5574829,go,0100003300,33
,3,大直美堤花園三,1046201360,25.080032,121.5556576,go,0100003300,33
,4,明水路口,1046200860,25.08014,121.55263,go,0100003300,33
,5,明水路一,1046600100,25.082292,121.551413,go,0100003300,33
,6,自強隧道,1046400040,25.083774,121.5490281,go,0100003300,33
,7,植福宮,1046300040,25.080848,121.5482394,go,0100003300,33
,8,捷運大直站,1046500560,25.079923,121.5461397,go,0100003300,33
,9,復興北村,1047600640,25.064978,121.5441547,go,0100003300,33
,10,民權敦化路口,1054100020,25.06202,121.5476253,go,0100003300,33
,11,民權東路口,1054200120,25.061587,121.5496186,go,0100003300,33
,12,民生敦化路口,1054600040,25.057956,121.548902,go,0100003300,33
,13,長春敦化路口,1054800440,25.05458,121.54883,go,0100003300,33
,14,臺北小巨蛋,1059500040,25.052139,121.548768,go,0100003300,33
,15,八德敦化路口,1055100040,25.04864,121.54874,go,0100003300,33
,16,市民敦化路口,1055700240,25.045271,121.548797,go,0100003300,33
,17,忠孝敦化路口,1069000140,25.041865,121.5487541,go,0100003300,33
,18,仁愛敦化路口,1068500140,25.039043,121.548697,go,0100003300,33
,19,信義敦化路口,1068100140,25.033775,121.548726,go,0100003300,33
,20,捷運信義安和站(信義),1068500320,25.033142,121.551229,go,0100003300,33
,21,信義通化街口,1067900420,25.033087,121.5539941,go,0100003300,33
,22,信義光復路口,1067900320,25.03311,121.55687,go,0100003300,33
,23,世貿中心(莊敬),1104900140,25.031446,121.56127,go,0100003300,33
,24,景新里,1104900440,25.02923,121.5624103,go,0100003300,33
,25,臺北醫學大學,1105000340,25.028273,121.5632643,go,0100003300,33
,26,信義國中(莊敬),1105000240,25.027402,121.565724,go,0100003300,33
,27,吳興國小(松仁),1104600001,25.027082,121.568415,go,0100003300,33
,28,信義國中(松仁),1105900000,25.02881,121.568464,go,0100003300,33
,29,松平路口,1105800300,25.03124,121.56839,go,0100003300,33
,30,捷運象山站,1104700720,25.032648,121.568984,go,0100003300,33
,31,國稅局宿舍,1108500020,25.03433,121.575678,go,0100003300,33
,32,松山商職(信義),1108600020,25.035968,121.5777733,go,0100003300,33
,33,松山商職(福德),1107700520,25.036219,121.5787474,go,0100003300,33
,34,松友新村,1107700620,25.036858,121.581141,go,0100003300,33
,35,信義行政中心(奉天宮),1107800120,25.037669,121.5832737,go,0100003300,33
,36,大道路,1107700000,25.040321,121.5827027,go,0100003300,33
,37,忠孝大道路口,1107700400,25.042496,121.5815915,go,0100003300,33
,38,春光公園,1106200260,25.042632,121.580447,go,0100003300,33
,39,永春公寓,1107600040,25.039975,121.5777181,go,0100003300,33
,40,松山商職(松山),1107600140,25.036576,121.5783351,go,0100003300,33
,41,永春高中,1108000040,25.033484,121.5796725,go,0100003300,33
,1,永春高中,1108000000,25.033446,121.5797804,come,0100003300,33
,2,松山商職(松山),1107600100,25.036029,121.578609,come,0100003300,33
,3,永春公寓,1107600000,25.040006,121.5779488,come,0100003300,33
,4,永春里(忠孝),1107700120,25.041101,121.5785081,come,0100003300,33
,5,春光公園,1106200220,25.042737,121.580888,come,0100003300,33
,6,忠孝大道路口,1107700440,25.042363,121.581579,come,0100003300,33
,7,大道路,1107700040,25.040157,121.5827287,come,0100003300,33
,8,信義行政中心(奉天宮),1107800160,25.03789,121.58325,come,0100003300,33
,9,松友新村,1107700660,25.037055,121.580964,come,0100003300,33
,10,松山商職(福德),1107700560,25.036372,121.5787375,come,0100003300,33
,11,國業里,1107800360,25.03555,121.57704,come,0100003300,33
,12,國稅局宿舍,1108500060,25.034442,121.575497,come,0100003300,33
,13,松平路口,1104600340,25.030795,121.568193,come,0100003300,33
,14,信義國中(松仁),1105900040,25.02881,121.568164,come,0100003300,33
,15,吳興國小(莊敬),1105800260,25.026855,121.5680489,come,0100003300,33
,16,信義國中(莊敬),1105000200,25.027607,121.56521,come,0100003300,33
,17,臺北醫學大學,1105000300,25.028241,121.5634888,come,0100003300,33
,18,景新里,1104900400,25.029526,121.5623852,come,0100003300,33
,19,世貿中心(莊敬),1104900100,25.031399,121.561326,come,0100003300,33
,20,信義光復路口,1105200260,25.0331,121.55813,come,0100003300,33
,21,信義通化街口,1067900460,25.033193,121.5546221,come,0100003300,33
,22,捷運信義安和站(信義),1068500360,25.033223,121.552849,come,0100003300,33
,23,信義敦化路口,1068500260,25.033377,121.549449,come,0100003300,33
,24,仁愛國中,1068900100,25.035951,121.5490897,come,0100003300,33
,25,安和敦化路口,1068900400,25.039761,121.5489579,come,0100003300,33
,26,捷運忠孝敦化站,1069000200,25.043012,121.549174,come,0100003300,33
,27,市民大道口,1055700000,25.045757,121.5491941,come,0100003300,33
,28,市立體育場,1054900200,25.048949,121.549204,come,0100003300,33
,29,臺北小巨蛋,1055000000,25.05258,121.54933,come,0100003300,33
,30,長庚醫院,1050800000,25.05656,121.54929,come,0100003300,33
,31,富錦街口,1057200100,25.0596,121.55006,come,0100003300,33
,32,民權敦化路口,1054100060,25.062035,121.5482873,come,0100003300,33
,33,五常街口,1047600200,25.064149,121.5444202,come,0100003300,33
,34,大直國小,1046500220,25.079711,121.5453154,come,0100003300,33
,35,捷運大直站,1046500520,25.080216,121.5479855,come,0100003300,33
,36,植福宮,1046300000,25.081609,121.5488002,come,0100003300,33
,37,自強隧道(大直教會),1046400100,25.083737,121.5493072,come,0100003300,33
,38,自強隧道,1046400020,25.085862,121.5518959,come,0100003300,33
,39,捷運劍南路站,1046400320,25.08484,121.555253,come,0100003300,33
,40,美麗華,1144600120,25.084538,121.5581969,come,0100003300,33
16分鐘,1,敬業四路,1046201940,25.081855,121.5584464,come,0100003300,33
17分鐘,2,大直美堤花園二,1046600660,25.08002,121.5574829,come,0100003300,33
18分鐘,3,大直美堤花園三,1046201360,25.080032,121.5556576,come,0100003300,33
19分鐘,4,明水路口,1046200860,25.08014,121.55263,come,0100003300,33
21分鐘,5,明水路一,1046600100,25.082292,121.551413,come,0100003300,33
23分鐘,6,自強隧道,1046400040,25.083774,121.5490281,come,0100003300,33
24分鐘,7,植福宮,1046300040,25.080848,121.5482394,come,0100003300,33
進站中,8,捷運大直站,1046500560,25.079923,121.5461397,come,0100003300,33
6分鐘,9,復興北村,1047600640,25.064978,121.5441547,come,0100003300,33
10分鐘,10,民權敦化路口,1054100020,25.06202,121.5476253,come,0100003300,33
11分鐘,11,民權東路口,1054200120,25.061587,121.5496186,come,0100003300,33
14分鐘,12,民生敦化路口,1054600040,25.057956,121.548902,come,0100003300,33
15分鐘,13,長春敦化路口,1054800440,25.05458,121.54883,come,0100003300,33
18分鐘,14,臺北小巨蛋,1059500040,25.052139,121.548768,come,0100003300,33
19分鐘,15,八德敦化路口,1055100040,25.04864,121.54874,come,0100003300,33
22分鐘,16,市民敦化路口,1055700240,25.045271,121.548797,come,0100003300,33
24分鐘,17,忠孝敦化路口,1069000140,25.041865,121.5487541,come,0100003300,33
26分鐘,18,仁愛敦化路口,1068500140,25.039043,121.548697,come,0100003300,33
進站中,19,信義敦化路口,1068100140,25.033775,121.548726,come,0100003300,33
3分鐘,20,捷運信義安和站(信義),1068500320,25.033142,121.551229,come,0100003300,33
4分鐘,21,信義通化街口,1067900420,25.033087,121.5539941,come,0100003300,33
5分鐘,22,信義光復路口,1067900320,25.03311,121.55687,come,0100003300,33
8分鐘,23,世貿中心(莊敬),1104900140,25.031446,121.56127,come,0100003300,33
10分鐘,24,景新里,1104900440,25.02923,121.5624103,come,0100003300,33
11分鐘,25,臺北醫學大學,1105000340,25.028273,121.5632643,come,0100003300,33
13分鐘,26,信義國中(莊敬),1105000240,25.027402,121.565724,come,0100003300,33
14分鐘,27,吳興國小(松仁),1104600001,25.027082,121.568415,come,0100003300,33
16分鐘,28,信義國中(松仁),1105900000,25.02881,121.568464,come,0100003300,33
16分鐘,29,松平路口,1105800300,25.03124,121.56839,come,0100003300,33
17分鐘,30,捷運象山站,1104700720,25.032648,121.568984,come,0100003300,33
20分鐘,31,國稅局宿舍,1108500020,25.03433,121.575678,come,0100003300,33
21分鐘,32,松山商職(信義),1108600020,25.035968,121.5777733,come,0100003300,33
22分鐘,33,松山商職(福德),1107700520,25.036219,121.5787474,come,0100003300,33
末班已過,34,松友新村,1107700620,25.036858,121.581141,come,0100003300,33
末班已過,35,信義行政中心(奉天宮),1107800120,25.037669,121.5832737,come,0100003300,33
末班已過,36,大道路,1107700000,25.040321,121.5827027,come,0100003300,33
末班已過,37,忠孝大道路口,1107700400,25.042496,121.5815915,come,0100003300,33
末班已過,38,春光公園,1106200260,25.042632,121.580447,come,0100003300,33
末班已過,39,永春公寓,1107600040,25.039975,121.5777181,come,0100003300,33
末班已過,40,松山商職(松山),1107600140,25.036576,121.5783351,come,0100003300,33
23分鐘,41,永春高中,1108000040,25.033484,121.5796725,come,0100003300,33
16分鐘,1,吳興街站,1104600100,25.02324,121.56976,go,0100003700,37
16分鐘,2,松仁路,1104600200,25.02453,121.5695997,go,0100003700,37
17分鐘,3,吳興國小(松仁),1104600000,25.026234,121.568628,go,0100003700,37
18分鐘,4,信義國中(莊敬),1105000200,25.027607,121.56521,go,0100003700,37
20分鐘,5,臺北醫學大學,1105000300,25.028241,121.5634888,go,0100003700,37
21分鐘,6,景新里,1104900400,25.029526,121.5623852,go,0100003700,37
22分鐘,7,世貿中心(莊敬),1104900100,25.031399,121.561326,go,0100003700,37
26分鐘,8,世貿中心(基隆路),1105100100,25.033677,121.5601565,go,0100003700,37
29分鐘,9,市議會,1107300300,25.037028,121.5620977,go,0100003700,37
31分鐘,10,國父紀念館,1107300560,25.037685,121.5609264,go,0100003700,37
31分鐘,11,仁愛光復路口,1107300060,25.0377,121.55781,go,0100003700,37
33分鐘,12,仁愛延吉街口,1069600060,25.037774,121.5557793,go,0100003700,37
33分鐘,13,仁愛國泰醫院,1068700360,25.037828,121.5532159,go,0100003700,37
35分鐘,14,仁愛安和路口,1068800060,25.037852,121.5516958,go,0100003700,37
進站中,15,仁愛敦化路口(圓環),1068800160,25.038013,121.5472892,go,0100003700,37
進站中,16,仁愛復興路口(福華飯店),1068500060,25.03806,121.544071,go,0100003700,37
4分鐘,17,仁愛建國路口一,1065700060,25.038167,121.5394276,go,0100003700,37
6分鐘,18,幸安國小,1065100160,25.038238,121.5343376,go,0100003700,37
7分鐘,19,仁愛新生路口,1065100060,25.038245,121.5331329,go,0100003700,37
8分鐘,20,仁愛臨沂街口,1006000260,25.03834,121.52952,go,0100003700,37
10分鐘,21,仁愛杭州路口,1005500060,25.038352,121.5254546,go,0100003700,37
11分鐘,22,仁愛林森路口,1005200160,25.038912,121.5211551,go,0100003700,37
12分鐘,23,仁愛中山路口,1005100060,25.039261,121.5183669,go,0100003700,37
14分鐘,24,捷運台大醫院站,1004801100,25.041927,121.5163535,go,0100003700,37
,1,臺北車站(青島),1004100820,25.044844,121.517704,go,0100003700,37
,2,臺大醫院,1005500340,25.042497,121.5185042,go,0100003700,37
,3,仁愛中山路口,1005100020,25.039129,121.5184523,go,0100003700,37
,4,仁愛林森路口,1005200120,25.038769,121.5213453,go,0100003700,37
,5,仁愛紹興街口,1005200220,25.038452,121.5235878,go,0100003700,37
,6,仁愛臨沂街口,1006000220,25.038218,121.5280453,go,0100003700,37
,7,仁愛新生路口,1006200120,25.038163,121.5324028,go,0100003700,37
,8,幸安國小,1065100120,25.038044,121.5343357,go,0100003700,37
,9,仁愛建國路口一,1065300020,25.038031,121.5370721,go,0100003700,37
,10,仁愛建國路口二,1065600020,25.037966,121.5406655,go,0100003700,37
,11,仁愛復興路口(福華飯店),1068500020,25.037854,121.543165,go,0100003700,37
,12,仁愛大安路口(仁愛醫院),1069100020,25.03784,121.545738,go,0100003700,37
,13,仁愛敦化路口(圓環),1068800120,25.037783,121.5476903,go,0100003700,37
,14,仁愛安和路口,1068800020,25.037721,121.5508833,go,0100003700,37
,15,仁愛國小,1068700140,25.036502,121.5520521,go,0100003700,37
,16,捷運信義安和站(安和),1068000240,25.034385,121.552398,go,0100003700,37
,17,信義通化街口,1067900420,25.033087,121.5539941,go,0100003700,37
,18,信義光復路口,1067900320,25.03311,121.55687,go,0100003700,37
,19,世貿中心(莊敬),1104900140,25.031446,121.56127,go,0100003700,37
,20,景新里,1104900440,25.02923,121.5624103,go,0100003700,37
,21,臺北醫學大學,1105000340,25.028273,121.5632643,go,0100003700,37
,22,信義國中(莊敬),1105000240,25.027402,121.565724,go,0100003700,37
,23,吳興國小(莊敬),1105000020,25.026725,121.568122,go,0100003700,37
,24,松仁路,1104600240,25.024432,121.569585,go,0100003700,37
,25,吳興街站,1104600100,25.02324,121.56976,go,0100003700,37
,1,吳興街站,1104600100,25.02324,121.56976,come,0100003700,37
,2,松仁路,1104600200,25.02453,121.5695997,come,0100003700,37
,3,吳興國小(松仁),1104600000,25.026234,121.568628,come,0100003700,37
,4,信義國中(莊敬),1105000200,25.027607,121.56521,come,0100003700,37
,5,臺北醫學大學,1105000300,25.028241,121.5634888,come,0100003700,37
,6,景新里,1104900400,25.029526,121.5623852,come,0100003700,37
,7,世貿中心(莊敬),1104900100,25.031399,121.561326,come,0100003700,37
,8,世貿中心(基隆路),1105100100,25.033677,121.5601565,come,0100003700,37
,9,市議會,1107300300,25.037028,121.5620977,come,0100003700,37
,10,國父紀念館,1107300560,25.037685,121.5609264,come,0100003700,37
,11,仁愛光復路口,1107300060,25.0377,121.55781,come,0100003700,37
,12,仁愛延吉街口,1069600060,25.037774,121.5557793,come,0100003700,37
,13,仁愛國泰醫院,1068700360,25.037828,121.5532159,come,0100003700,37
,14,仁愛安和路口,1068800060,25.037852,121.5516958,come,0100003700,37
,15,仁愛敦化路口(圓環),1068800160,25.038013,121.5472892,come,0100003700,37
,16,仁愛復興路口(福華飯店),1068500060,25.03806,121.544071,come,0100003700,37
,17,仁愛建國路口一,1065700060,25.038167,121.5394276,come,0100003700,37
,18,幸安國小,1065100160,25.038238,121.5343376,come,0100003700,37
,19,仁愛新生路口,1065100060,25.038245,121.5331329,come,0100003700,37
,20,仁愛臨沂街口,1006000260,25.03834,121.52952,come,0100003700,37
,21,仁愛杭州路口,1005500060,25.038352,121.5254546,come,0100003700,37
,22,仁愛林森路口,1005200160,25.038912,121.5211551,come,0100003700,37
,23,仁愛中山路口,1005100060,25.039261,121.5183669,come,0100003700,37
,24,捷運台大醫院站,1004801100,25.041927,121.5163535,come,0100003700,37
16分鐘,1,臺北車站(青島),1004100820,25.044844,121.517704,come,0100003700,37
20分鐘,2,臺大醫院,1005500340,25.042497,121.5185042,come,0100003700,37
21分鐘,3,仁愛中山路口,1005100020,25.039129,121.5184523,come,0100003700,37
24分鐘,4,仁愛林森路口,1005200120,25.038769,121.5213453,come,0100003700,37
25分鐘,5,仁愛紹興街口,1005200220,25.038452,121.5235878,come,0100003700,37
進站中,6,仁愛臨沂街口,1006000220,25.038218,121.5280453,come,0100003700,37
進站中,7,仁愛新生路口,1006200120,25.038163,121.5324028,come,0100003700,37
3分鐘,8,幸安國小,1065100120,25.038044,121.5343357,come,0100003700,37
4分鐘,9,仁愛建國路口一,1065300020,25.038031,121.5370721,come,0100003700,37
6分鐘,10,仁愛建國路口二,1065600020,25.037966,121.5406655,come,0100003700,37
7分鐘,11,仁愛復興路口(福華飯店),1068500020,25.037854,121.543165,come,0100003700,37
9分鐘,12,仁愛大安路口(仁愛醫院),1069100020,25.03784,121.545738,come,0100003700,37
10分鐘,13,仁愛敦化路口(圓環),1068800120,25.037783,121.5476903,come,0100003700,37
11分鐘,14,仁愛安和路口,1068800020,25.037721,121.5508833,come,0100003700,37
12分鐘,15,仁愛國小,1068700140,25.036502,121.5520521,come,0100003700,37
14分鐘,16,捷運信義安和站(安和),1068000240,25.034385,121.552398,come,0100003700,37
17分鐘,17,信義通化街口,1067900420,25.033087,121.5539941,come,0100003700,37
18分鐘,18,信義光復路口,1067900320,25.03311,121.55687,come,0100003700,37
3分鐘,19,世貿中心(莊敬),1104900140,25.031446,121.56127,come,0100003700,37
5分鐘,20,景新里,1104900440,25.02923,121.5624103,come,0100003700,37
5分鐘,21,臺北醫學大學,1105000340,25.028273,121.5632643,come,0100003700,37
7分鐘,22,信義國中(莊敬),1105000240,25.027402,121.565724,come,0100003700,37
8分鐘,23,吳興國小(莊敬),1105000020,25.026725,121.568122,come,0100003700,37
11分鐘,24,松仁路,1104600240,25.024432,121.569585,come,0100003700,37
12分鐘,25,吳興街站,1104600100,25.02324,121.56976,come,0100003700,37
6分鐘,1,榮德里,1087100200,25.018859,121.493379,go,0100003800,38
6分鐘,2,東隆宮,1086600000,25.02288,121.49163,go,0100003800,38
7分鐘,3,和德里,1086500000,25.024898,121.4906879,go,0100003800,38
8分鐘,4,環南市場,1086500100,25.027671,121.4894532,go,0100003800,38
9分鐘,5,綜合市場,1085800200,25.03062,121.49029,go,0100003800,38
9分鐘,6,大理高中,1088300000,25.031919,121.491328,go,0100003800,38
10分鐘,7,華江派出所,1088300100,25.034114,121.4933405,go,0100003800,38
12分鐘,8,中國時報,1085500120,25.035221,121.496276,go,0100003800,38
14分鐘,9,捷運龍山寺站,1085500320,25.035143,121.500164,go,0100003800,38
15分鐘,10,龍山國中,1084900610,25.03563,121.50409,go,0100003800,38
18分鐘,11,小南門(和平院區),1006600120,25.036307,121.5085509,go,0100003800,38
18分鐘,12,捷運小南門站,1006600920,25.035233,121.51163,go,0100003800,38
20分鐘,13,南門,1006600640,25.033565,121.515375,go,0100003800,38
進站中,14,自來水西分處(寧波),1007500020,25.029828,121.5157,go,0100003800,38
進站中,15,聯合醫院婦幼院區一,1007500340,25.029987,121.5180375,go,0100003800,38
4分鐘,16,潮州街口,1064100400,25.030033,121.5221853,go,0100003800,38
6分鐘,17,愛國東路口,1064100200,25.03276,121.522887,go,0100003800,38
7分鐘,18,金甌女中,1064100000,25.034934,121.5241858,go,0100003800,38
9分鐘,19,捷運東門站,1064100120,25.034134,121.5269937,go,0100003800,38
10分鐘,20,信義永康街口(捷運東門站),1065000320,25.033693,121.529727,go,0100003800,38
11分鐘,21,信義新生路口,1006100020,25.03353,121.5323283,go,0100003800,38
12分鐘,22,捷運大安森林公園站,1065600420,25.033496,121.5356316,go,0100003800,38
15分鐘,23,大安國宅,1065900000,25.029775,121.5380059,go,0100003800,38
,1,捷運大安森林公園站,1065600460,25.03355,121.5359159,go,0100003800,38
,2,信義新生路口,1065600360,25.033627,121.5331327,go,0100003800,38
,3,信義永康街口,1065100260,25.033765,121.5301447,go,0100003800,38
,4,捷運東門站,1005700060,25.034232,121.526986,go,0100003800,38
,5,信義杭州路口,1004800860,25.035417,121.5246296,go,0100003800,38
,6,中正紀念堂,1004800960,25.03739,121.52056,go,0100003800,38
,7,一女中(貴陽),1004800260,25.038656,121.5144986,go,0100003800,38
,8,東吳大學城中校區,1004800760,25.03918,121.50941,go,0100003800,38
,9,小南門(和平院區),1004200160,25.03723,121.507745,go,0100003800,38
,10,桂林昆明街口,1084900160,25.0381,121.5043,go,0100003800,38
,11,桂林路,1084800160,25.038472,121.5008151,go,0100003800,38
,12,龍山寺(西園),1085500541,25.0363,121.49929,go,0100003800,38
,13,中國時報,1085500160,25.035454,121.4969752,go,0100003800,38
,14,華江派出所,1088300140,25.034006,121.493016,go,0100003800,38
,15,大理高中,1085800140,25.03162,121.490827,go,0100003800,38
,16,綜合市場,1085800240,25.03054,121.4898,go,0100003800,38
,1,榮德里,1087100200,25.018859,121.493379,come,0100003800,38
,2,東隆宮,1086600000,25.02288,121.49163,come,0100003800,38
,3,和德里,1086500000,25.024898,121.4906879,come,0100003800,38
,4,環南市場,1086500100,25.027671,121.4894532,come,0100003800,38
,5,綜合市場,1085800200,25.03062,121.49029,come,0100003800,38
,6,大理高中,1088300000,25.031919,121.491328,come,0100003800,38
,7,華江派出所,1088300100,25.034114,121.4933405,come,0100003800,38
,8,中國時報,1085500120,25.035221,121.496276,come,0100003800,38
,9,捷運龍山寺站,1085500320,25.035143,121.500164,come,0100003800,38
,10,龍山國中,1084900610,25.03563,121.50409,come,0100003800,38
,11,小南門(和平院區),1006600120,25.036307,121.5085509,come,0100003800,38
,12,捷運小南門站,1006600920,25.035233,121.51163,come,0100003800,38
,13,南門,1006600640,25.033565,121.515375,come,0100003800,38
,14,自來水西分處(寧波),1007500020,25.029828,121.5157,come,0100003800,38
,15,聯合醫院婦幼院區一,1007500340,25.029987,121.5180375,come,0100003800,38
,16,潮州街口,1064100400,25.030033,121.5221853,come,0100003800,38
,17,愛國東路口,1064100200,25.03276,121.522887,come,0100003800,38
,18,金甌女中,1064100000,25.034934,121.5241858,come,0100003800,38
,19,捷運東門站,1064100120,25.034134,121.5269937,come,0100003800,38
,20,信義永康街口(捷運東門站),1065000320,25.033693,121.529727,come,0100003800,38
,21,信義新生路口,1006100020,25.03353,121.5323283,come,0100003800,38
,22,捷運大安森林公園站,1065600420,25.033496,121.5356316,come,0100003800,38
,23,大安國宅,1065900000,25.029775,121.5380059,come,0100003800,38
20分鐘,1,捷運大安森林公園站,1065600460,25.03355,121.5359159,come,0100003800,38
21分鐘,2,信義新生路口,1065600360,25.033627,121.5331327,come,0100003800,38
22分鐘,3,信義永康街口,1065100260,25.033765,121.5301447,come,0100003800,38
進站中,4,捷運東門站,1005700060,25.034232,121.526986,come,0100003800,38
3分鐘,5,信義杭州路口,1004800860,25.035417,121.5246296,come,0100003800,38
5分鐘,6,中正紀念堂,1004800960,25.03739,121.52056,come,0100003800,38
8分鐘,7,一女中(貴陽),1004800260,25.038656,121.5144986,come,0100003800,38
10分鐘,8,東吳大學城中校區,1004800760,25.03918,121.50941,come,0100003800,38
12分鐘,9,小南門(和平院區),1004200160,25.03723,121.507745,come,0100003800,38
15分鐘,10,桂林昆明街口,1084900160,25.0381,121.5043,come,0100003800,38
17分鐘,11,桂林路,1084800160,25.038472,121.5008151,come,0100003800,38
18分鐘,12,龍山寺(西園),1085500541,25.0363,121.49929,come,0100003800,38
20分鐘,13,中國時報,1085500160,25.035454,121.4969752,come,0100003800,38
22分鐘,14,華江派出所,1088300140,25.034006,121.493016,come,0100003800,38
23分鐘,15,大理高中,1085800140,25.03162,121.490827,come,0100003800,38
24分鐘,16,綜合市場,1085800240,25.03054,121.4898,come,0100003800,38
