go_stop_number	go_stop_name	go_stop_id	go_latitude	go_longitude	come_stop_number	come_stop_name	come_stop_id	come_latitude	come_longitude		
0東	0100000A00										
1 	瑞湖街口	1149400220 	25 	122 	1 	瑞湖街口	1149400220 	25 	122 		
1 	臺北車站(公園)	1004700340 	25 	122 	1 	臺北車站(公園)	1004700340 	25 	122 		
10 	捷運大安站(信義)	1065800420 	25 	122 	10 	捷運大安站(信義)	1065800420 	25 	122 		
10 	內湖高中	1147500020 	25 	122 	10 	內湖高中	1147500020 	25 	122 		
11 	信義大安路口	1068300220 	25 	122 	11 	信義大安路口	1068300220 	25 	122 		
11 	方濟中學	1146000140 	25 	122 	11 	方濟中學	1146000140 	25 	122 		
12 	信義敦化路口	1068100120 	25 	122 	12 	信義敦化路口	1068100120 	25 	122 		
12 	將軍嶺	1147200240 	25 	122 	12 	將軍嶺	1147200240 	25 	122 		
13 	三總內湖站	1149000100 	25 	122 	13 	三總內湖站	1149000100 	25 	122 		
13 	仁愛國中	1068900100 	25 	122 	13 	仁愛國中	1068900100 	25 	122 		
14 	安和敦化路口	1068900400 	25 	122 	14 	安和敦化路口	1068900400 	25 	122 		
14 	國防醫學中心	1147200140 	25 	122 	14 	國防醫學中心	1147200140 	25 	122 		
15 	捷運忠孝敦化站	1069000200 	25 	122 	15 	捷運忠孝敦化站	1069000200 	25 	122 		
15 	內湖行政大樓	1146600160 	25 	122 	15 	內湖行政大樓	1146600160 	25 	122 		
16 	市民大道口	1055700000 	25 	122 	16 	市民大道口	1055700000 	25 	122 		
16 	三民國中	1146600060 	25 	122 	16 	三民國中	1146600060 	25 	122 		
17 	臺視	1055900020 	25 	122 	17 	臺視	1055900020 	25 	122 		
17 	時報廣場	1149401060 	25 	122 	17 	時報廣場	1149401060 	25 	122 		
18 	美仁里	1055400120 	25 	122 	18 	美仁里	1055400120 	25 	122 		
18 	民權大橋	1149400360 	25 	122 	18 	民權大橋	1149400360 	25 	122 		
19 	新益里	1059200140 	25 	122 	19 	新益里	1059200140 	25 	122 		
19 	榮民服務處	1056000100 	25 	122 	19 	榮民服務處	1056000100 	25 	122 		
2 	捷運台大醫院站	1004600040 	25 	122 	2 	捷運台大醫院站	1004600040 	25 	122 		
2 	麗寶大樓	1149100300 	25 	122 	2 	麗寶大樓	1149100300 	25 	122 		
20 	南京新村	1057900100 	25 	122 	20 	南京新村	1057900100 	25 	122 		
20 	民生國中	1059100040 	25 	122 	20 	民生國中	1059100040 	25 	122 		
21 	新東街口	1058900160 	25 	122 	21 	新東街口	1058900160 	25 	122 		
21 	三軍總醫院松山分院	1058600020 	25 	122 	21 	三軍總醫院松山分院	1058600020 	25 	122 		
22 	長壽公園	1058600120 	25 	122 	22 	長壽公園	1058600120 	25 	122 		
22 	三民路	1058200140 	25 	122 	22 	三民路	1058200140 	25 	122 		
23 	健康新城	1058600220 	25 	122 	23 	健康新城	1058600220 	25 	122 		
23 	三民健康路口(西松高中)	1058200040 	25 	122 	23 	三民健康路口(西松高中)	1058200040 	25 	122 		
24 	健康新城	1058600260 	25 	122 	24 	健康新城	1058600260 	25 	122 		
24 	三民健康路口(西松高中)	1058200000 	25 	122 	24 	三民健康路口(西松高中)	1058200000 	25 	122 		
25 	長壽公園	1058600160 	25 	122 	25 	長壽公園	1058600160 	25 	122 		
25 	三民路	1058200100 	25 	122 	25 	三民路	1058200100 	25 	122 		
26 	三軍總醫院松山分院	1056400060 	25 	122 	26 	三軍總醫院松山分院	1056400060 	25 	122 		
26 	新東街口	1058900120 	25 	122 	26 	新東街口	1058900120 	25 	122 		
27 	南京新村	1057900140 	25 	122 	27 	南京新村	1057900140 	25 	122 		
27 	民生國中	1059400200 	25 	122 	27 	民生國中	1059400200 	25 	122 		
28 	博仁醫院	1056000040 	25 	122 	28 	博仁醫院	1056000040 	25 	122 		
28 	新益里	1059200100 	25 	122 	28 	新益里	1059200100 	25 	122 		
29 	民權大橋	1149400320 	25 	122 	29 	民權大橋	1149400320 	25 	122 		
29 	光復路口	1055400060 	25 	122 	29 	光復路口	1055400060 	25 	122 		
3 	中正紀念堂	1004800920 	25 	122 	3 	中正紀念堂	1004800920 	25 	122 		
3 	公館山	1149100000 	25 	122 	3 	公館山	1149100000 	25 	122 		
30 	時報廣場	1149401020 	25 	122 	30 	時報廣場	1149401020 	25 	122 		
30 	美仁里	1055400160 	25 	122 	30 	美仁里	1055400160 	25 	122 		
31 	臺視	1055900061 	25 	122 	31 	臺視	1055900061 	25 	122 		
31 	三民國中	1146600020 	25 	122 	31 	三民國中	1146600020 	25 	122 		
32 	市民敦化路口	1055700240 	25 	122 	32 	市民敦化路口	1055700240 	25 	122 		
32 	內湖行政大樓	1146600120 	25 	122 	32 	內湖行政大樓	1146600120 	25 	122 		
33 	忠孝敦化路口	1069000140 	25 	122 	33 	忠孝敦化路口	1069000140 	25 	122 		
33 	國防醫學中心	1147200100 	25 	122 	33 	國防醫學中心	1147200100 	25 	122 		
34 	三總內湖站	1149000200 	25 	122 	34 	三總內湖站	1149000200 	25 	122 		
34 	仁愛敦化路口	1068500140 	25 	122 	34 	仁愛敦化路口	1068500140 	25 	122 		
35 	將軍嶺	1147200200 	25 	122 	35 	將軍嶺	1147200200 	25 	122 		
35 	信義敦化路口	1068100141 	25 	122 	35 	信義敦化路口	1068100141 	25 	122 		
36 	方濟中學	1146200000 	25 	122 	36 	方濟中學	1146200000 	25 	122 		
36 	信義大安路口	1068400060 	25 	122 	36 	信義大安路口	1068400060 	25 	122 		
37 	捷運大安站(信義)	1068400260 	25 	122 	37 	捷運大安站(信義)	1068400260 	25 	122 		
37 	內湖高中	1147500060 	25 	122 	37 	內湖高中	1147500060 	25 	122 		
38 	捷運文德站(碧湖公園)	1147500260 	25 	122 	38 	捷運文德站(碧湖公園)	1147500260 	25 	122 		
38 	師大附中	1065800360 	25 	122 	38 	師大附中	1065800360 	25 	122 		
39 	湖光國宅	1147300060 	25 	122 	39 	湖光國宅	1147300060 	25 	122 		
39 	信義建國路口	1065800160 	25 	122 	39 	信義建國路口	1065800160 	25 	122 		
4 	信義杭州路口	1004800820 	25 	122 	4 	信義杭州路口	1004800820 	25 	122 		
4 	瑞光路	1147400070 	25 	122 	4 	瑞光路	1147400070 	25 	122 		
40 	捷運大安森林公園站	1065600460 	25 	122 	40 	捷運大安森林公園站	1065600460 	25 	122 		
40 	西湖圖書館(湖光教會)	1144700061 	25 	122 	40 	西湖圖書館(湖光教會)	1144700061 	25 	122 		
41 	港墘派出所	1144800240 	25 	122 	41 	港墘派出所	1144800240 	25 	122 		
41 	信義新生路口	1065600360 	25 	122 	41 	信義新生路口	1065600360 	25 	122 		
42 	信義永康街口	1065100260 	25 	122 	42 	信義永康街口	1065100260 	25 	122 		
42 	瑞光路	1149100230 	25 	122 	42 	瑞光路	1149100230 	25 	122 		
43 	捷運東門站	1005700060 	25 	122 	43 	捷運東門站	1005700060 	25 	122 		
43 	公館山	1149100040 	25 	122 	43 	公館山	1149100040 	25 	122 		
44 	信義杭州路口	1004800860 	25 	122 	44 	信義杭州路口	1004800860 	25 	122 		
44 	麗寶大樓	1149100340 	25 	122 	44 	麗寶大樓	1149100340 	25 	122 		
45 	瑞湖街口	1149400261 	25 	122 	45 	瑞湖街口	1149400261 	25 	122 		
45 	中正紀念堂	1004800960 	25 	122 	45 	中正紀念堂	1004800960 	25 	122 		
46 	捷運台大醫院站	1004801100 	25 	122 	46 	捷運台大醫院站	1004801100 	25 	122 		
47 	博物館(館前)	1004700200 	25 	122 	47 	博物館(館前)	1004700200 	25 	122 		
48 	臺北車站(忠孝)	1004100720 	25 	122 	48 	臺北車站(忠孝)	1004100720 	25 	122 		
5 	捷運東門站	1064100120 	25 	122 	5 	捷運東門站	1064100120 	25 	122 		
5 	內湖運動中心	1144800300 	25 	122 	5 	內湖運動中心	1144800300 	25 	122 		
6 	信義永康街口(捷運東門站)	1065000320 	25 	122 	6 	信義永康街口(捷運東門站)	1065000320 	25 	122 		
6 	港墘派出所	1144800100 	25 	122 	6 	港墘派出所	1144800100 	25 	122 		
7 	信義新生路口	1006100020 	25 	122 	7 	信義新生路口	1006100020 	25 	122 		
7 	西湖圖書館(湖光教會)	1144700020 	25 	122 	7 	西湖圖書館(湖光教會)	1144700020 	25 	122 		
8 	捷運大安森林公園站	1065600420 	25 	122 	8 	捷運大安森林公園站	1065600420 	25 	122 		
8 	湖光國宅	1147500320 	25 	122 	8 	湖光國宅	1147500320 	25 	122 		
9 	捷運文德站(碧湖公園)	1147500220 	25 	122 	9 	捷運文德站(碧湖公園)	1147500220 	25 	122 		
9 	信義建國路口	1065800120 	25 	122 	9 	信義建國路口	1065800120 	25 	122 		
											
0南	0100000B00										
1	萬芳社區	1166500360	25.001753	121.570457	1	萬芳社區	1166500360	25.001753	121.570457		
1	信義永康街口(捷運東門站)	1065000320	25.033693	121.529727	1	信義永康街口(捷運東門站)	1065000320	25.033693	121.529727		
10	中國科技大學(興隆)	1169400000	25.000405	121.5557979	10	中國科技大學(興隆)	1169400000	25.000405	121.5557979		
10	景明街口	1168000020	25.001631	121.5422579	10	景明街口	1168000020	25.001631	121.5422579		
11	興隆國小	1169200360	25.001459	121.5530398	11	興隆國小	1169200360	25.001459	121.5530398		
11	憲光公寓	1168000140	24.999433	121.5438916	11	憲光公寓	1168000140	24.999433	121.5438916		
12	靜心高中	1168700320	24.998797	121.545859	12	靜心高中	1168700320	24.998797	121.545859		
12	興德國小	1169200560	25.000982	121.5500736	12	興德國小	1169200560	25.000982	121.5500736		
13	興隆市場	1168700020	24.999632	121.547902	13	興隆市場	1168700020	24.999632	121.547902		
13	興隆市場	1168900260	24.999584	121.5474484	13	興隆市場	1168900260	24.999584	121.5474484		
14	興德國小	1168900420	25.00097	121.5503078	14	興德國小	1168900420	25.00097	121.5503078		
14	靜心高中	1168700360	24.998953	121.545835	14	靜心高中	1168700360	24.998953	121.545835		
15	憲光公寓	1168000100	24.999719	121.5439365	15	憲光公寓	1168000100	24.999719	121.5439365		
15	興隆國小	1169000020	25.001221	121.5533283	15	興隆國小	1169000020	25.001221	121.5533283		
16	景明街口	1168200060	25.001808	121.5422591	16	景明街口	1168200060	25.001808	121.5422591		
16	捷運萬芳醫院站	1169500121	24.999051	121.557681	16	捷運萬芳醫院站	1169500121	24.999051	121.557681		
17	武功國小(興隆)	1168100060	25.004266	121.5399955	17	武功國小(興隆)	1168100060	25.004266	121.5399955		
17	臺灣警察專科學校	1169800240	24.998268	121.5584948	17	臺灣警察專科學校	1169800240	24.998268	121.5584948		
18	文山運動中心(萬芳)	1169600020	24.996958	121.56078	18	文山運動中心(萬芳)	1169600020	24.996958	121.56078		
18	師大分部	1167700000	25.00767	121.5384703	18	師大分部	1167700000	25.00767	121.5384703		
19	捷運公館站	1009000100	25.013993	121.535185	19	捷運公館站	1009000100	25.013993	121.535185		
19	棕櫚泉社區	1169600320	24.99729	121.56229	19	棕櫚泉社區	1169600320	24.99729	121.56229		
2	萬芳活動中心	1166500460	25.002436	121.569474	2	萬芳活動中心	1166500460	25.002436	121.569474		
2	金華新生路口	1065000240	25.03087	121.53346	2	金華新生路口	1065000240	25.03087	121.53346		
20	臺大	1067300800	25.018029	121.53375	20	臺大	1067300800	25.018029	121.53375		
20	萬利街口	1165300220	24.998733	121.56623	20	萬利街口	1165300220	24.998733	121.56623		
21	臺大綜合體育館	1066000100	25.021405	121.5343881	21	臺大綜合體育館	1066000100	25.021405	121.5343881		
21	捷運萬芳社區站	1165300120	24.998858	121.5680836	21	捷運萬芳社區站	1165300120	24.998858	121.5680836		
22	溫州街口	1064400460	25.026354	121.5326938	22	溫州街口	1064400460	25.026354	121.5326938		
22	萬芳6號公園	1165300500	24.999654	121.569055	22	萬芳6號公園	1165300500	24.999654	121.569055		
23	師大綜合大樓	1064400360	25.026622	121.53006	23	師大綜合大樓	1064400360	25.026622	121.53006		
23	萬芳國小	1165300460	25.001533	121.567472	23	萬芳國小	1165300460	25.001533	121.567472		
24	師大	1064400260	25.026738	121.5277134	24	師大	1064400260	25.026738	121.5277134		
24	萬芳活動中心	1166500420	25.002391	121.5683789	24	萬芳活動中心	1166500420	25.002391	121.5683789		
25	萬芳社區	1165300320	25.002253	121.5698159	25	萬芳社區	1165300320	25.002253	121.5698159		
25	金山潮州街口	1064400100	25.028663	121.526353	25	金山潮州街口	1064400100	25.028663	121.526353		
26	公企中心	1064200000	25.03066	121.52673	26	公企中心	1064200000	25.03066	121.52673		
27	捷運東門站(金山)	1065000500	25.033211	121.5272129	27	捷運東門站(金山)	1065000500	25.033211	121.5272129		
3	和平新生路口	1064400040	25.02639	121.53478	3	和平新生路口	1064400040	25.02639	121.53478		
3	萬芳國小	1165300420	25.001037	121.5680544	3	萬芳國小	1165300420	25.001037	121.5680544		
4	龍安國小(公務人力發展學院)	1066000240	25.024664	121.5345198	4	龍安國小(公務人力發展學院)	1066000240	25.024664	121.5345198		
4	萬芳6號公園	1165300540	24.999962	121.56892	4	萬芳6號公園	1165300540	24.999962	121.56892		
5	臺大綜合體育館	1066000140	25.02155	121.5341136	5	臺大綜合體育館	1066000140	25.02155	121.5341136		
5	萬利街口	1165400260	24.999065	121.567262	5	萬利街口	1165400260	24.999065	121.567262		
6	臺大	1067300840	25.018239	121.533435	6	臺大	1067300840	25.018239	121.533435		
6	棕櫚泉社區	1169600360	24.997568	121.5625566	6	棕櫚泉社區	1169600360	24.997568	121.5625566		
7	捷運公館站	1009000140	25.014321	121.534722	7	捷運公館站	1009000140	25.014321	121.534722		
7	文山運動中心(萬芳)	1169600060	24.99706	121.5603813	7	文山運動中心(萬芳)	1169600060	24.99706	121.5603813		
8	師大分部	1167700041	25.00814	121.538064	8	師大分部	1167700041	25.00814	121.538064		
8	臺灣警察專科學校	1169800200	24.997677	121.559454	8	臺灣警察專科學校	1169800200	24.997677	121.559454		
9	武功國小(興隆)	1168100020	25.004127	121.5398685	9	武功國小(興隆)	1168100020	25.004127	121.5398685		
9	捷運萬芳醫院站	1169600260	24.999259	121.557829	9	捷運萬芳醫院站	1169600260	24.999259	121.557829		
											
1	100000100										
1	華江站	1037600320	25.032283	121.4889513	1	華江站	1037600320	25.032283	121.4889513		
1	松仁路	1104600200	25.02453	121.5695997	1	松仁路	1104600200	25.02453	121.5695997		
10	捷運六張犁站(基隆路)	1067500240	25.023428	121.551345	10	捷運六張犁站(基隆路)	1067500240	25.023428	121.551345		
10	建國中學	1006600420	25.029178	121.513095	10	建國中學	1006600420	25.029178	121.513095		
11	自來水西分處(寧波)	1007500020	25.029828	121.5157	11	自來水西分處(寧波)	1007500020	25.029828	121.5157		
11	和平高中	1105200140	25.02024	121.54763	11	和平高中	1105200140	25.02024	121.54763		
12	基隆長興街口	1067200460	25.018512	121.5456371	12	基隆長興街口	1067200460	25.018512	121.5456371		
12	聯合醫院婦幼院區一	1007500340	25.029987	121.5180375	12	聯合醫院婦幼院區一	1007500340	25.029987	121.5180375		
13	南昌家具街	1008400140	25.027364	121.520315	13	南昌家具街	1008400140	25.027364	121.520315		
13	臺大癌醫(基隆路)	1067200760	25.015713	121.5422472	13	臺大癌醫(基隆路)	1067200760	25.015713	121.5422472		
14	臺灣科技大學	1060700060	25.014151	121.540464	14	臺灣科技大學	1060700060	25.014151	121.540464		
14	羅斯福金門街口	1008400340	25.024288	121.5243501	14	羅斯福金門街口	1008400340	25.024288	121.5243501		
15	公館	1067300060	25.012108	121.5380694	15	公館	1067300060	25.012108	121.5380694		
15	羅斯福浦城街口	1064600340	25.022418	121.5260858	15	羅斯福浦城街口	1064600340	25.022418	121.5260858		
16	捷運公館站	1009000160	25.015228	121.534086	16	捷運公館站	1009000160	25.015228	121.534086		
16	捷運台電大樓站	1008900420	25.020027	121.528697	16	捷運台電大樓站	1008900420	25.020027	121.528697		
17	台電大樓	1067300240	25.017546	121.531379	17	台電大樓	1067300240	25.017546	121.531379		
17	台電大樓	1067300200	25.018486	121.530566	17	台電大樓	1067300200	25.018486	121.530566		
18	捷運公館站	1009000140	25.014321	121.534722	18	捷運公館站	1009000140	25.014321	121.534722		
18	捷運台電大樓站	1064700300	25.02092	121.52803	18	捷運台電大樓站	1064700300	25.02092	121.52803		
19	羅斯福浦城街口	1064600300	25.022311	121.5265002	19	羅斯福浦城街口	1064600300	25.022311	121.5265002		
19	公館	1067300020	25.012096	121.5385308	19	公館	1067300020	25.012096	121.5385308		
2	吳興國小(松仁)	1104600000	25.026234	121.568628	2	吳興國小(松仁)	1104600000	25.026234	121.568628		
2	人壽一村	1085800020	25.031523	121.4902758	2	人壽一村	1085800020	25.031523	121.4902758		
20	羅斯福金門街口	1008400300	25.024106	121.5246768	20	羅斯福金門街口	1008400300	25.024106	121.5246768		
20	臺灣科技大學	1060700020	25.013453	121.5401488	20	臺灣科技大學	1060700020	25.013453	121.5401488		
21	捷運古亭站(羅斯福)	1008400200	25.02678	121.52269	21	捷運古亭站(羅斯福)	1008400200	25.02678	121.52269		
21	臺大癌醫(基隆路)	1067200720	25.015521	121.5425256	21	臺大癌醫(基隆路)	1067200720	25.015521	121.5425256		
22	捷運古亭站(杭州)	1064200100	25.02886	121.5219375	22	捷運古亭站(杭州)	1064200100	25.02886	121.5219375		
22	基隆長興街口	1067200320	25.017425	121.5448494	22	基隆長興街口	1067200320	25.017425	121.5448494		
23	南福板溪(南昌公園)	1007800060	25.02681	121.52053	23	南福板溪(南昌公園)	1007800060	25.02681	121.52053		
23	和平高中	1105200100	25.01963	121.54746	23	和平高中	1105200100	25.01963	121.54746		
24	牯嶺街	1007800300	25.02814	121.51789	24	牯嶺街	1007800300	25.02814	121.51789		
24	捷運六張犁站(基隆路)	1067500200	25.023636	121.5519069	24	捷運六張犁站(基隆路)	1067500200	25.023636	121.5519069		
25	喬治商職	1105400100	25.02628	121.5549231	25	喬治商職	1105400100	25.02628	121.5549231		
25	自來水西分處(牯嶺)	1007600100	25.029865	121.5166342	25	自來水西分處(牯嶺)	1007600100	25.029865	121.5166342		
26	三興國小(臨江街觀光夜市)	1105300100	25.028574	121.557017	26	三興國小(臨江街觀光夜市)	1105300100	25.028574	121.557017		
26	牯嶺街小劇場	1007500200	25.03176	121.51518	26	牯嶺街小劇場	1007500200	25.03176	121.51518		
27	吳興街口	1105200000	25.031596	121.5588464	27	吳興街口	1105200000	25.031596	121.5588464		
27	建國中學(歷史博物館)	1006600560	25.031565	121.512879	27	建國中學(歷史博物館)	1006600560	25.031565	121.512879		
28	植物園	1007000260	25.03088	121.508711	28	植物園	1007000260	25.03088	121.508711		
28	世貿中心(莊敬)	1104900140	25.031446	121.56127	28	世貿中心(莊敬)	1104900140	25.031446	121.56127		
29	和平中華路口	1006600360	25.033191	121.50578	29	和平中華路口	1006600360	25.033191	121.50578		
29	景新里	1104900440	25.02923	121.5624103	29	景新里	1104900440	25.02923	121.5624103		
3	信義國中(莊敬)	1105000200	25.027607	121.56521	3	信義國中(莊敬)	1105000200	25.027607	121.56521		
3	大理高中	1088300000	25.031919	121.491328	3	大理高中	1088300000	25.031919	121.491328		
30	昆明街口	1085100060	25.035341	121.5020082	30	昆明街口	1085100060	25.035341	121.5020082		
30	臺北醫學大學	1105000340	25.028273	121.5632643	30	臺北醫學大學	1105000340	25.028273	121.5632643		
31	捷運龍山寺站	1085200360	25.03538	121.49971	31	捷運龍山寺站	1085200360	25.03538	121.49971		
31	信義國中(莊敬)	1105000240	25.027402	121.565724	31	信義國中(莊敬)	1105000240	25.027402	121.565724		
32	吳興國小(莊敬)	1105000020	25.026725	121.568122	32	吳興國小(莊敬)	1105000020	25.026725	121.568122		
32	中國時報	1085500160	25.035454	121.4969752	32	中國時報	1085500160	25.035454	121.4969752		
33	華江派出所	1088300140	25.034006	121.493016	33	華江派出所	1088300140	25.034006	121.493016		
33	松仁路	1104600240	25.024432	121.569585	33	松仁路	1104600240	25.024432	121.569585		
34	大理高中	1085800140	25.03162	121.490827	34	大理高中	1085800140	25.03162	121.490827		
35	人壽一村	1085800060	25.032073	121.4895177	35	人壽一村	1085800060	25.032073	121.4895177		
36	華江站	1085800360	25.032333	121.4889822	36	華江站	1085800360	25.032333	121.4889822		
4	臺北醫學大學	1105000300	25.028241	121.5634888	4	臺北醫學大學	1105000300	25.028241	121.5634888		
4	華江派出所	1088300100	25.034114	121.4933405	4	華江派出所	1088300100	25.034114	121.4933405		
5	中國時報	1085500120	25.035221	121.496276	5	中國時報	1085500120	25.035221	121.496276		
5	景新里	1104900400	25.029526	121.5623852	5	景新里	1104900400	25.029526	121.5623852		
6	捷運龍山寺站	1085500320	25.035143	121.500164	6	捷運龍山寺站	1085500320	25.035143	121.500164		
6	世貿中心(莊敬)	1104900100	25.031399	121.561326	6	世貿中心(莊敬)	1104900100	25.031399	121.561326		
7	昆明街口	1085100020	25.0351	121.5024902	7	昆明街口	1085100020	25.0351	121.5024902		
7	吳興街口	1105200040	25.031594	121.5586001	7	吳興街口	1105200040	25.031594	121.5586001		
8	三興國小(臨江街觀光夜市)	1067700140	25.028215	121.556522	8	三興國小(臨江街觀光夜市)	1067700140	25.028215	121.556522		
8	和平中華路口	1006800120	25.032422	121.5062725	8	和平中華路口	1006800120	25.032422	121.5062725		
9	植物園	1007000220	25.030056	121.509834	9	植物園	1007000220	25.030056	121.509834		
9	喬治商職	1067500340	25.02633	121.5546403	9	喬治商職	1067500340	25.02633	121.5546403		
											
2	100000200										
1	富洲里	1117401420	25.109126	121.468652	1	富洲里	1117401420	25.109126	121.468652		
1	捷運台大醫院站	1004801100	25.041927	121.5163535	1	捷運台大醫院站	1004801100	25.041927	121.5163535		
10	福安國中	1117401940	25.103238	121.4872193	10	福安國中	1117401940	25.103238	121.4872193		
10	昌吉重慶路口	1036300200	25.065794	121.5137575	10	昌吉重慶路口	1036300200	25.065794	121.5137575		
11	民族重慶路口	1036900020	25.068586	121.5143308	11	民族重慶路口	1036900020	25.068586	121.5143308		
11	臨江園	1117402040	25.1017	121.48915	11	臨江園	1117402040	25.1017	121.48915		
12	蘭州國中	1036400420	25.068512	121.5161869	12	蘭州國中	1036400420	25.068512	121.5161869		
12	地藏禪寺	1117400540	25.09956	121.49168	12	地藏禪寺	1117400540	25.09956	121.49168		
13	下竹圍	1117200040	25.09816	121.49333	13	下竹圍	1117200040	25.09816	121.49333		
13	民族承德路口	1036500001	25.069322	121.518574	13	民族承德路口	1036500001	25.069322	121.518574		
14	福安區民活動中心	1117201040	25.09707	121.49461	14	福安區民活動中心	1117201040	25.09707	121.49461		
14	庫倫街	1036700360	25.072013	121.5176838	14	庫倫街	1036700360	25.072013	121.5176838		
15	大龍峒保安宮	1036700060	25.07209	121.515621	15	大龍峒保安宮	1036700060	25.07209	121.515621		
15	福安里	1117200940	25.09612	121.49561	15	福安里	1117200940	25.09612	121.49561		
16	普濟堂	1117200840	25.094151	121.4974417	16	普濟堂	1117200840	25.094151	121.4974417		
16	酒泉重慶路口	1037300160	25.072042	121.514591	16	酒泉重慶路口	1037300160	25.072042	121.514591		
17	社子國小二	1117200540	25.090017	121.5020824	17	社子國小二	1117200540	25.090017	121.5020824		
17	酒泉街	1037300260	25.072185	121.5135209	17	酒泉街	1037300260	25.072185	121.5135209		
18	老師里	1037300060	25.072183	121.511508	18	老師里	1037300060	25.072183	121.511508		
18	社子國小	1117200440	25.089646	121.5028759	18	社子國小	1117200440	25.089646	121.5028759		
19	永倫里(南)	1117200720	25.089298	121.504244	19	永倫里(南)	1117200720	25.089298	121.504244		
19	污水處理廠	1037200000	25.075572	121.5118974	19	污水處理廠	1037200000	25.075572	121.5118974		
2	台北海大	1117400440	25.108188	121.4708548	2	台北海大	1117400440	25.108188	121.4708548		
2	臺北車站(青島)	1004100820	25.044844	121.517704	2	臺北車站(青島)	1004100820	25.044844	121.517704		
20	社子消防分隊	1116500300	25.079411	121.5112234	20	社子消防分隊	1116500300	25.079411	121.5112234		
20	社子派出所	1117200320	25.089332	121.5056145	20	社子派出所	1117200320	25.089332	121.5056145		
21	社子市場二	1117200240	25.088796	121.5081045	21	社子市場二	1117200240	25.088796	121.5081045		
21	海光新村	1116500400	25.080711	121.5107623	21	海光新村	1116500400	25.080711	121.5107623		
22	葫蘆堵市場	1116501000	25.083057	121.5102329	22	葫蘆堵市場	1116501000	25.083057	121.5102329		
22	社子市場	1117200140	25.088046	121.5087166	22	社子市場	1117200140	25.088046	121.5087166		
23	葫蘆寺(葫蘆里)	1117300200	25.086022	121.5096458	23	葫蘆寺(葫蘆里)	1117300200	25.086022	121.5096458		
23	葫蘆寺(葫蘆里)	1117100340	25.085288	121.5095885	23	葫蘆寺(葫蘆里)	1117100340	25.085288	121.5095885		
24	葫蘆堵市場	1116501040	25.083075	121.5100276	24	葫蘆堵市場	1116501040	25.083075	121.5100276		
24	社子市場	1117200100	25.087505	121.5090743	24	社子市場	1117200100	25.087505	121.5090743		
25	海光新村	1117100240	25.081321	121.5103891	25	海光新村	1117100240	25.081321	121.5103891		
25	社園里	1117200600	25.089056	121.5079873	25	社園里	1117200600	25.089056	121.5079873		
26	社子消防分隊	1116500340	25.079521	121.5109944	26	社子消防分隊	1116500340	25.079521	121.5109944		
26	社子派出所	1117200360	25.089599	121.5064251	26	社子派出所	1117200360	25.089599	121.5064251		
27	污水處理廠	1037200040	25.07605	121.5118	27	污水處理廠	1037200040	25.07605	121.5118		
27	永倫里(南)	1117200760	25.089467	121.503968	27	永倫里(南)	1117200760	25.089467	121.503968		
28	老師里	1037300020	25.072056	121.5115542	28	老師里	1037300020	25.072056	121.5115542		
28	社子國小	1117200400	25.089904	121.5025776	28	社子國小	1117200400	25.089904	121.5025776		
29	永倫里(延平)	1117500100	25.091148	121.500682	29	永倫里(延平)	1117500100	25.091148	121.500682		
29	酒泉街	1037300220	25.072041	121.5133789	29	酒泉街	1037300220	25.072041	121.5133789		
3	行政院	1004100500	25.046578	121.5202398	3	行政院	1004100500	25.046578	121.5202398		
3	浮線	1117401140	25.106587	121.4725103	3	浮線	1117401140	25.106587	121.4725103		
30	洲美橋	1117500500	25.092658	121.4992219	30	洲美橋	1117500500	25.092658	121.4992219		
30	民族重慶路口	1036900040	25.068879	121.51371	30	民族重慶路口	1036900040	25.068879	121.51371		
31	中窟	1117400300	25.09534	121.49649	31	中窟	1117400300	25.09534	121.49649		
31	昌吉重慶路口	1036300240	25.06615	121.5136438	31	昌吉重慶路口	1036300240	25.06615	121.5136438		
32	福安里	1117200900	25.09636	121.49544	32	福安里	1117200900	25.09636	121.49544		
32	捷運大橋頭站	1035900040	25.063324	121.5135163	32	捷運大橋頭站	1035900040	25.063324	121.5135163		
33	福安區民活動中心	1117201000	25.09717	121.49455	33	福安區民活動中心	1117201000	25.09717	121.49455		
33	涼州重慶路口	1035800340	25.06098	121.5135093	33	涼州重慶路口	1035800340	25.06098	121.5135093		
34	下竹圍	1117200000	25.0982	121.49333	34	下竹圍	1117200000	25.0982	121.49333		
34	民生重慶路口	1035800140	25.05715	121.5136927	34	民生重慶路口	1035800140	25.05715	121.5136927		
35	朝陽公園(鈕釦街)	1034500042	25.055504	121.514022	35	朝陽公園(鈕釦街)	1034500042	25.055504	121.514022		
35	地藏禪寺	1117400500	25.099749	121.4915352	35	地藏禪寺	1117400500	25.099749	121.4915352		
36	臨江園	1117402000	25.10163	121.48928	36	臨江園	1117402000	25.10163	121.48928		
36	圓環(南京)	1035000220	25.053651	121.5157054	36	圓環(南京)	1035000220	25.053651	121.5157054		
37	臺北車站(承德)	1034900240	25.050735	121.5167729	37	臺北車站(承德)	1034900240	25.050735	121.5167729		
37	福安國中	1117401900	25.10333	121.48729	37	福安國中	1117401900	25.10333	121.48729		
38	富洲里八段	1117401600	25.10576	121.48446	38	富洲里八段	1117401600	25.10576	121.48446		
38	臺北車站(鄭州)	1035100420	25.048497	121.5171976	38	臺北車站(鄭州)	1035100420	25.048497	121.5171976		
39	富安國小	1117401360	25.10596	121.4833	39	富安國小	1117401360	25.10596	121.4833		
39	行政院	1004100540	25.046484	121.5197596	39	行政院	1004100540	25.046484	121.5197596		
4	富洲里九段	1117401540	25.10614	121.47427	4	富洲里九段	1117401540	25.10614	121.47427		
4	臺北車站(鄭州)	1035100460	25.048809	121.5174713	4	臺北車站(鄭州)	1035100460	25.048809	121.5174713		
40	建安新村	1117400960	25.10601	121.48116	40	建安新村	1117400960	25.10601	121.48116		
40	臺大醫院	1005500340	25.042497	121.5185042	40	臺大醫院	1005500340	25.042497	121.5185042		
41	下溪沙尾	1117400160	25.10597	121.47884	41	下溪沙尾	1117400160	25.10597	121.47884		
42	威靈廟	1117400800	25.105957	121.4764835	42	威靈廟	1117400800	25.105957	121.4764835		
43	富洲里九段	1117401500	25.106223	121.4742815	43	富洲里九段	1117401500	25.106223	121.4742815		
44	浮線	1117401100	25.106667	121.4725864	44	浮線	1117401100	25.106667	121.4725864		
45	台北海大	1117400400	25.108525	121.4706761	45	台北海大	1117400400	25.108525	121.4706761		
46	富洲里	1117401460	25.109244	121.468346	46	富洲里	1117401460	25.109244	121.468346		
5	後車站	1034900100	25.050269	121.5135627	5	後車站	1034900100	25.050269	121.5135627		
5	威靈廟	1117400840	25.105857	121.4762383	5	威靈廟	1117400840	25.105857	121.4762383		
6	圓環(重慶)	1035000300	25.052844	121.514207	6	圓環(重慶)	1035000300	25.052844	121.514207		
6	下溪沙尾	1117400120	25.10581	121.47886	6	下溪沙尾	1117400120	25.10581	121.47886		
7	民生重慶路口	1035600000	25.056766	121.5138258	7	民生重慶路口	1035600000	25.056766	121.5138258		
7	建安新村	1117400920	25.105952	121.4812673	7	建安新村	1117400920	25.105952	121.4812673		
8	富安國小	1117401320	25.105912	121.4831859	8	富安國小	1117401320	25.105912	121.4831859		
8	涼州重慶路口	1035800300	25.060669	121.5135455	8	涼州重慶路口	1035800300	25.060669	121.5135455		
9	富洲里八段	1117401640	25.10563	121.48448	9	富洲里八段	1117401640	25.10563	121.48448		
9	捷運大橋頭站	1035900000	25.062704	121.513583	9	捷運大橋頭站	1035900000	25.062704	121.513583		
											
5	100000500										
1	中和保養廠	2355800420	25.002543	121.492374	1	中和保養廠	2355800420	25.002543	121.492374		
1	捷運行天宮站(松江路)	1046800240	25.060535	121.5331063	1	捷運行天宮站(松江路)	1046800240	25.060535	121.5331063		
10	華泰新城(宜安路)	2357600520	24.998841	121.508875	10	華泰新城(宜安路)	2357600520	24.998841	121.508875		
10	市立大學附小	1004800540	25.036462	121.5149763	10	市立大學附小	1004800540	25.036462	121.5149763		
11	南門	1006600640	25.033565	121.515375	11	南門	1006600640	25.033565	121.515375		
11	宜安路	2357600220	24.997389	121.5109042	11	宜安路	2357600220	24.997389	121.5109042		
12	寧波重慶路口	1007600240	25.028886	121.5153917	12	寧波重慶路口	1007600240	25.028886	121.5153917		
12	安平路	2357200000	24.99767	121.51196	12	安平路	2357200000	24.99767	121.51196		
13	重慶南路三段(中正橋)	1007100040	25.024804	121.516528	13	重慶南路三段(中正橋)	1007100040	25.024804	121.516528		
13	潭墘	2357200300	24.99948	121.51347	13	潭墘	2357200300	24.99948	121.51347		
14	捷運頂溪站	2344300940	25.01443	121.5155769	14	捷運頂溪站	2344300940	25.01443	121.5155769		
14	823紀念公園	2358200970	25.001909	121.5151052	14	823紀念公園	2358200970	25.001909	121.5151052		
15	中興街口	2344400140	25.011595	121.5147464	15	中興街口	2344400140	25.011595	121.5147464		
15	永安市場	2345500500	25.00506	121.51445	15	永安市場	2345500500	25.00506	121.51445		
16	樂華夜市	2344500840	25.00839	121.51386	16	樂華夜市	2344500840	25.00839	121.51386		
16	自強街口	2344700300	25.007558	121.514584	16	自強街口	2344700300	25.007558	121.514584		
17	樂華夜市	2344500800	25.008563	121.5141176	17	樂華夜市	2344500800	25.008563	121.5141176		
17	永和路口	2344500440	25.005687	121.5128613	17	永和路口	2344500440	25.005687	121.5128613		
18	捷運頂溪站	2344500600	25.01258	121.515273	18	捷運頂溪站	2344500600	25.01258	121.515273		
18	永安市場(永貞路)	2357400140	25.003661	121.513414	18	永安市場(永貞路)	2357400140	25.003661	121.513414		
19	中正橋頭	2344500100	25.016042	121.5162239	19	中正橋頭	2344500100	25.016042	121.5162239		
19	中安街	2357400040	25.002081	121.512357	19	中安街	2357400040	25.002081	121.512357		
2	家美工業區	2355700720	25.002035	121.493889	2	家美工業區	2355700720	25.002035	121.493889		
2	長春松江路口	1048500040	25.055006	121.533011	2	長春松江路口	1048500040	25.055006	121.533011		
20	重慶南路三段(中正橋)	1007700000	25.024254	121.5168988	20	重慶南路三段(中正橋)	1007700000	25.024254	121.5168988		
20	安平派出所	2357400740	25.000769	121.511211	20	安平派出所	2357400740	25.000769	121.511211		
21	安平路	2357600140	24.997722	121.511791	21	安平路	2357600140	24.997722	121.511791		
21	福州街	1007800500	25.028027	121.517445	21	福州街	1007800500	25.028027	121.517445		
22	自來水西分處(牯嶺)	1007600100	25.029865	121.5166342	22	自來水西分處(牯嶺)	1007600100	25.029865	121.5166342		
22	宜安路	2357600260	24.997295	121.5112044	22	宜安路	2357600260	24.997295	121.5112044		
23	南昌路	1007500101	25.031219	121.517248	23	南昌路	1007500101	25.031219	121.517248		
23	華泰新城(宜安路)	2357600560	24.998949	121.509048	23	華泰新城(宜安路)	2357600560	24.998949	121.509048		
24	南門	1007400100	25.033381	121.51568	24	南門	1007400100	25.033381	121.51568		
24	雙和里	2357500760	24.99973	121.5068521	24	雙和里	2357500760	24.99973	121.5068521		
25	南山高中	2357500660	24.999775	121.505547	25	南山高中	2357500660	24.999775	121.505547		
25	一女中(公園)	1004800000	25.036828	121.5151365	25	一女中(公園)	1004800000	25.036828	121.5151365		
26	中和派出所	2357500060	24.999855	121.5028195	26	中和派出所	2357500060	24.999855	121.5028195		
26	捷運台大醫院站	1004801100	25.041927	121.5163535	26	捷運台大醫院站	1004801100	25.041927	121.5163535		
27	臺北車站(青島)	1004100820	25.044844	121.517704	27	臺北車站(青島)	1004100820	25.044844	121.517704		
27	中和廟口	2357500260	25.000814	121.5009077	27	中和廟口	2357500260	25.000814	121.5009077		
28	行政院	1004100500	25.046578	121.5202398	28	行政院	1004100500	25.046578	121.5202398		
28	中和農會(中和路)	2357500100	25.001862	121.499868	28	中和農會(中和路)	2357500100	25.001862	121.499868		
29	中山市場	1044400000	25.050519	121.522081	29	中山市場	1044400000	25.050519	121.522081		
29	一江新村	2355800060	25.002636	121.498247	29	一江新村	2355800060	25.002636	121.498247		
3	南京吉林路口	1045700260	25.052112	121.5303325	3	南京吉林路口	1045700260	25.052112	121.5303325		
3	捷運中和站(中山路)	2355701020	25.002211	121.495441	3	捷運中和站(中山路)	2355701020	25.002211	121.495441		
30	南京林森路口	1045400120	25.052069	121.5250604	30	南京林森路口	1045400120	25.052069	121.5250604		
30	捷運中和站(中山路)	2355701060	25.002436	121.496157	30	捷運中和站(中山路)	2355701060	25.002436	121.496157		
31	南京吉林路口	1045700220	25.052007	121.529855	31	南京吉林路口	1045700220	25.052007	121.529855		
31	家美工業區	2355700760	25.00229	121.493465	31	家美工業區	2355700760	25.00229	121.493465		
32	中和保養廠	2355700360	25.003079	121.491807	32	中和保養廠	2355700360	25.003079	121.491807		
32	捷運松江南京站	1045700420	25.051969	121.5327305	32	捷運松江南京站	1045700420	25.051969	121.5327305		
33	長春松江路口	1045900300	25.054536	121.5331386	33	長春松江路口	1045900300	25.054536	121.5331386		
34	民生松江路口	1048300320	25.057791	121.535046	34	民生松江路口	1048300320	25.057791	121.535046		
35	合江街口	1047800020	25.057724	121.5381394	35	合江街口	1047800020	25.057724	121.5381394		
36	臺北大學(臺北校區)	1048000220	25.05774	121.54274	36	臺北大學(臺北校區)	1048000220	25.05774	121.54274		
37	捷運中山國中站	1047600500	25.060855	121.544405	37	捷運中山國中站	1047600500	25.060855	121.544405		
38	民權龍江路口	1047600460	25.062395	121.5412752	38	民權龍江路口	1047600460	25.062395	121.5412752		
39	民權建國路口	1047700060	25.062483	121.53746	39	民權建國路口	1047700060	25.062483	121.53746		
4	一江新村	2355800020	25.002407	121.498123	4	一江新村	2355800020	25.002407	121.498123		
4	南京林森路口	1045400160	25.052167	121.5257174	4	南京林森路口	1045400160	25.052167	121.5257174		
40	民權松江路口	1048300060	25.062524	121.5334388	40	民權松江路口	1048300060	25.062524	121.5334388		
5	中山市場	1044400040	25.051264	121.5220211	5	中山市場	1044400040	25.051264	121.5220211		
5	中和農會(中和路)	2357500140	25.001903	121.499736	5	中和農會(中和路)	2357500140	25.001903	121.499736		
6	行政院	1004100540	25.046484	121.5197596	6	行政院	1004100540	25.046484	121.5197596		
6	中和廟口	2357500220	25.000553	121.500968	6	中和廟口	2357500220	25.000553	121.500968		
7	臺北車站(公園)	1004700340	25.043929	121.516775	7	臺北車站(公園)	1004700340	25.043929	121.516775		
7	中和派出所	2357500020	24.999695	121.5027697	7	中和派出所	2357500020	24.999695	121.5027697		
8	南山高中	2357500620	24.999655	121.5048263	8	南山高中	2357500620	24.999655	121.5048263		
8	捷運台大醫院站	1004600040	25.041935	121.5161481	8	捷運台大醫院站	1004600040	25.041935	121.5161481		
9	一女中(公園)	1004800040	25.038007	121.5149627	9	一女中(公園)	1004800040	25.038007	121.5149627		
9	雙和里	2357500720	24.999571	121.50739	9	雙和里	2357500720	24.999571	121.50739		
											
8	400000800										
1	捷運新店站(新店路)	2314700841	24.958392	121.53755	1	捷運新店站(新店路)	2314700841	24.958392	121.53755		
1	中和教會	2357700120	24.992776	121.509186	1	中和教會	2357700120	24.992776	121.509186		
10	輕軌陽光運動公園站	2315900740	24.972781	121.5195205	10	輕軌陽光運動公園站	2315900740	24.972781	121.5195205		
10	十四份	2315900000	24.969329	121.518795	10	十四份	2315900000	24.969329	121.518795		
11	光華街口	2315900340	24.97032	121.51876	11	光華街口	2315900340	24.97032	121.51876		
11	光華街口	2315900300	24.970794	121.51914	11	光華街口	2315900300	24.970794	121.51914		
12	十四份	2315900040	24.96923	121.51843	12	十四份	2315900040	24.96923	121.51843		
12	輕軌陽光運動公園站	2315900700	24.972839	121.519852	12	輕軌陽光運動公園站	2315900700	24.972839	121.519852		
13	及人中學	2315900140	24.967302	121.5177866	13	及人中學	2315900140	24.967302	121.5177866		
13	石頭厝	2315900200	24.974308	121.51912	13	石頭厝	2315900200	24.974308	121.51912		
14	輕軌安康站	2315900441	24.96515	121.51705	14	輕軌安康站	2315900441	24.96515	121.51705		
14	安和路二段	2315900600	24.976061	121.517372	14	安和路二段	2315900600	24.976061	121.517372		
15	光華新村(安康路)	2315300820	24.963936	121.517942	15	光華新村(安康路)	2315300820	24.963936	121.517942		
15	陽光運動公園(新店花市)	2315901000	24.977253	121.5167886	15	陽光運動公園(新店花市)	2315901000	24.977253	121.5167886		
16	安華路口	2315301220	24.963705	121.5213653	16	安華路口	2315301220	24.963705	121.5213653		
16	永平里	2315900500	24.981146	121.517416	16	永平里	2315900500	24.981146	121.517416		
17	下城社區	2315300120	24.963473	121.5235251	17	下城社區	2315300120	24.963473	121.5235251		
17	輕軌新和國小站(水工大樓)	2315900800	24.983806	121.517953	17	輕軌新和國小站(水工大樓)	2315900800	24.983806	121.517953		
18	新和國小	2315901100	24.985335	121.517283	18	新和國小	2315901100	24.985335	121.517283		
18	胡璉故居紀念館	2315300020	24.962917	121.52598	18	胡璉故居紀念館	2315300020	24.962917	121.52598		
19	三介廟	2357700000	24.988375	121.513308	19	三介廟	2357700000	24.988375	121.513308		
19	頂城	2315302340	24.961725	121.528339	19	頂城	2315302340	24.961725	121.528339		
2	溪頭	2315302500	24.960831	121.5319036	2	溪頭	2315302500	24.960831	121.5319036		
2	景新街	2358200740	24.989796	121.512387	2	景新街	2358200740	24.989796	121.512387		
20	大坪頂	2315300240	24.961041	121.530152	20	大坪頂	2315300240	24.961041	121.530152		
20	景新街	2358200700	24.989999	121.512485	20	景新街	2358200700	24.989999	121.512485		
21	欣欣向榮(景新街)	2357200470	24.995152	121.507206	21	欣欣向榮(景新街)	2357200470	24.995152	121.507206		
21	溪頭	2315302540	24.960256	121.532361	21	溪頭	2315302540	24.960256	121.532361		
22	碧潭橋頭	2314701600	24.963158	121.53982	22	碧潭橋頭	2314701600	24.963158	121.53982		
22	景新街口	2357100440	24.995927	121.505574	22	景新街口	2357100440	24.995927	121.505574		
23	捷運景安站	2357600340	24.994596	121.505201	23	捷運景安站	2357600340	24.994596	121.505201		
23	檳榔路	2314702000	24.965001	121.5405875	23	檳榔路	2314702000	24.965001	121.5405875		
24	捷運新店區公所站(北新)	2314700900	24.967638	121.5416161	24	捷運新店區公所站(北新)	2314700900	24.967638	121.5416161		
25	中正路	2314600022	24.969823	121.54459	25	中正路	2314600022	24.969823	121.54459		
26	中興中正路口	2314600061	24.96884	121.54556	26	中興中正路口	2314600061	24.96884	121.54556		
27	五峰國中	2314600440	24.966834	121.544338	27	五峰國中	2314600440	24.966834	121.544338		
28	中興路一段	2314700040	24.963848	121.5421083	28	中興路一段	2314700040	24.963848	121.5421083		
29	舊郵政館	2314601340	24.961682	121.540751	29	舊郵政館	2314601340	24.961682	121.540751		
3	大坪頂	2315300200	24.961329	121.5298939	3	大坪頂	2315300200	24.961329	121.5298939		
3	三介廟	2356900040	24.987999	121.5132354	3	三介廟	2356900040	24.987999	121.5132354		
30	捷運新店站(新店路)	2314700841	24.958392	121.53755	30	捷運新店站(新店路)	2314700841	24.958392	121.53755		
4	頂城	2315302300	24.961886	121.528356	4	頂城	2315302300	24.961886	121.528356		
4	新和國小	2315901140	24.98554	121.516668	4	新和國小	2315901140	24.98554	121.516668		
5	輕軌新和國小站(水工大樓)	2315900840	24.983114	121.517819	5	輕軌新和國小站(水工大樓)	2315900840	24.983114	121.517819		
5	胡璉故居紀念館	2315300060	24.963037	121.526281	5	胡璉故居紀念館	2315300060	24.963037	121.526281		
6	永平里	2315900540	24.981678	121.5175586	6	永平里	2315900540	24.981678	121.5175586		
6	下城社區	2315300160	24.963596	121.5239545	6	下城社區	2315300160	24.963596	121.5239545		
7	陽光運動公園(新店花市)	2315901040	24.977353	121.5165771	7	陽光運動公園(新店花市)	2315901040	24.977353	121.5165771		
7	安華路口	2315301260	24.963907	121.5212082	7	安華路口	2315301260	24.963907	121.5212082		
8	安和路二段	2315900640	24.975951	121.517269	8	安和路二段	2315900640	24.975951	121.517269		
8	輕軌安康站	2315900400	24.96503	121.517257	8	輕軌安康站	2315900400	24.96503	121.517257		
9	及人中學	2315900100	24.967108	121.518062	9	及人中學	2315900100	24.967108	121.518062		
9	石頭厝	2315900240	24.974109	121.5188677	9	石頭厝	2315900240	24.974109	121.5188677		
											
9	100000900										
1	社子國小	1117200440	25.089646	121.5028759	1	社子國小	1117200440	25.089646	121.5028759		
1	祖師廟(康定)	1084900400	25.039681	121.5019792	1	祖師廟(康定)	1084900400	25.039681	121.5019792		
10	涼州重慶路口	1035800320	25.060697	121.512933	10	涼州重慶路口	1035800320	25.060697	121.512933		
10	污水處理廠	1037200040	25.07605	121.5118	10	污水處理廠	1037200040	25.07605	121.5118		
11	捷運大橋頭站	1035900000	25.062704	121.513583	11	捷運大橋頭站	1035900000	25.062704	121.513583		
11	老師里	1037300020	25.072056	121.5115542	11	老師里	1037300020	25.072056	121.5115542		
12	昌吉重慶路口	1036300200	25.065794	121.5137575	12	昌吉重慶路口	1036300200	25.065794	121.5137575		
12	酒泉街	1037300220	25.072041	121.5133789	12	酒泉街	1037300220	25.072041	121.5133789		
13	民族重慶路口	1036900040	25.068879	121.51371	13	民族重慶路口	1036900040	25.068879	121.51371		
13	民族重慶路口	1036900020	25.068586	121.5143308	13	民族重慶路口	1036900020	25.068586	121.5143308		
14	昌吉重慶路口	1036300240	25.06615	121.5136438	14	昌吉重慶路口	1036300240	25.06615	121.5136438		
14	蘭州國中	1036400420	25.068512	121.5161869	14	蘭州國中	1036400420	25.068512	121.5161869		
15	捷運大橋頭站	1035900040	25.063324	121.5135163	15	捷運大橋頭站	1035900040	25.063324	121.5135163		
15	民族承德路口	1036500001	25.069322	121.518574	15	民族承德路口	1036500001	25.069322	121.518574		
16	庫倫街	1036700360	25.072013	121.5176838	16	庫倫街	1036700360	25.072013	121.5176838		
16	涼州重慶路口	1034800360	25.060795	121.513088	16	涼州重慶路口	1034800360	25.060795	121.513088		
17	保安街口	1034600140	25.05983	121.5113241	17	保安街口	1034600140	25.05983	121.5113241		
17	大龍峒保安宮	1036700060	25.07209	121.515621	17	大龍峒保安宮	1036700060	25.07209	121.515621		
18	民生西路口(大稻埕碼頭)	1034400040	25.057928	121.5114003	18	民生西路口(大稻埕碼頭)	1034400040	25.057928	121.5114003		
18	酒泉重慶路口	1037300160	25.072042	121.514591	18	酒泉重慶路口	1037300160	25.072042	121.514591		
19	南京西路口(鈕釦街)	1034400140	25.054547	121.5116211	19	南京西路口(鈕釦街)	1034400140	25.054547	121.5116211		
19	酒泉街	1037300260	25.072185	121.5135209	19	酒泉街	1037300260	25.072185	121.5135209		
2	永倫里(南)	1117200720	25.089298	121.504244	2	永倫里(南)	1117200720	25.089298	121.504244		
2	長沙街	1085000220	25.040609	121.5056466	2	長沙街	1085000220	25.040609	121.5056466		
20	南京西路口(塔城)	1034300440	25.05265	121.51031	20	南京西路口(塔城)	1034300440	25.05265	121.51031		
20	老師里	1037300060	25.072183	121.511508	20	老師里	1037300060	25.072183	121.511508		
21	聯合醫院中興院區(塔城)	1034100640	25.051335	121.5103985	21	聯合醫院中興院區(塔城)	1034100640	25.051335	121.5103985		
21	污水處理廠	1037200000	25.075572	121.5118974	21	污水處理廠	1037200000	25.075572	121.5118974		
22	捷運北門站	1034100140	25.049002	121.510134	22	捷運北門站	1034100140	25.049002	121.510134		
22	社子消防分隊	1116500300	25.079411	121.5112234	22	社子消防分隊	1116500300	25.079411	121.5112234		
23	海光新村	1116500400	25.080711	121.5107623	23	海光新村	1116500400	25.080711	121.5107623		
23	中華路北站	1084300041	25.044584	121.508765	23	中華路北站	1084300041	25.044584	121.508765		
24	捷運西門站	1084600340	25.041649	121.5078873	24	捷運西門站	1084600340	25.041649	121.5078873		
24	葫蘆堵市場	1116501000	25.083057	121.5102329	24	葫蘆堵市場	1116501000	25.083057	121.5102329		
25	葫蘆寺(葫蘆里)	1117300200	25.086022	121.5096458	25	葫蘆寺(葫蘆里)	1117300200	25.086022	121.5096458		
25	小南門	1085000340	25.038008	121.5068125	25	小南門	1085000340	25.038008	121.5068125		
26	龍山國中	1084900640	25.035844	121.5038948	26	龍山國中	1084900640	25.035844	121.5038948		
26	社子市場	1117200100	25.087505	121.5090743	26	社子市場	1117200100	25.087505	121.5090743		
27	昆明街口	1085100060	25.035341	121.5020082	27	昆明街口	1085100060	25.035341	121.5020082		
27	社園里	1117200600	25.089056	121.5079873	27	社園里	1117200600	25.089056	121.5079873		
28	龍山寺(康定)	1085200700	25.036314	121.501464	28	龍山寺(康定)	1085200700	25.036314	121.501464		
28	社子派出所	1117200360	25.089599	121.5064251	28	社子派出所	1117200360	25.089599	121.5064251		
29	永倫里(南)	1117200760	25.089467	121.503968	29	永倫里(南)	1117200760	25.089467	121.503968		
3	社子派出所	1117200320	25.089332	121.5056145	3	社子派出所	1117200320	25.089332	121.5056145		
3	捷運西門站	1084600300	25.04173	121.5082859	3	捷運西門站	1084600300	25.04173	121.5082859		
30	社子國小	1117200400	25.089904	121.5025776	30	社子國小	1117200400	25.089904	121.5025776		
4	中華路北站	1004200200	25.045696	121.5093807	4	中華路北站	1004200200	25.045696	121.5093807		
4	社子市場二	1117200240	25.088796	121.5081045	4	社子市場二	1117200240	25.088796	121.5081045		
5	捷運北門站	1034100601	25.050609	121.5106101	5	捷運北門站	1034100601	25.050609	121.5106101		
5	社子市場	1117200140	25.088046	121.5087166	5	社子市場	1117200140	25.088046	121.5087166		
6	南京西路口(塔城)	1034300400	25.052852	121.5104624	6	南京西路口(塔城)	1034300400	25.052852	121.5104624		
6	葫蘆寺(葫蘆里)	1117100340	25.085288	121.5095885	6	葫蘆寺(葫蘆里)	1117100340	25.085288	121.5095885		
7	南京西路口(鈕釦街)	1034600200	25.054427	121.5117973	7	南京西路口(鈕釦街)	1034600200	25.054427	121.5117973		
7	葫蘆堵市場	1116501040	25.083075	121.5100276	7	葫蘆堵市場	1116501040	25.083075	121.5100276		
8	民生西路口(大稻埕碼頭)	1034600000	25.057441	121.5116168	8	民生西路口(大稻埕碼頭)	1034600000	25.057441	121.5116168		
8	海光新村	1117100240	25.081321	121.5103891	8	海光新村	1117100240	25.081321	121.5103891		
9	社子消防分隊	1116500340	25.079521	121.5109944	9	社子消防分隊	1116500340	25.079521	121.5109944		
9	保安街口	1034800100	25.05984	121.5114724	9	保安街口	1034800100	25.05984	121.5114724		
											
12	100001200										
1	華中河濱公園	1087100100	25.017171	121.4960943	1	華中河濱公園	1087100100	25.017171	121.4960943		
1	民生國中	1059100040	25.059661	121.5679233	1	民生國中	1059100040	25.059661	121.5679233		
10	臺北大學(臺北校區)	1047900060	25.05488	121.5386725	10	臺北大學(臺北校區)	1047900060	25.05488	121.5386725		
10	國興路口一	1088100300	25.024585	121.5088101	10	國興路口一	1088100300	25.024585	121.5088101		
11	國興路口	1006700300	25.025757	121.508379	11	國興路口	1006700300	25.025757	121.508379		
11	長春國小	1048500160	25.054904	121.534178	11	長春國小	1048500160	25.054904	121.534178		
12	中華南海路口	1006700100	25.027236	121.5066611	12	中華南海路口	1006700100	25.027236	121.5066611		
12	松江長春路口	1045800140	25.054176	121.5329348	12	松江長春路口	1045800140	25.054176	121.5329348		
13	南機場公寓	1006900000	25.028591	121.5054077	13	南機場公寓	1006900000	25.028591	121.5054077		
13	南京吉林路口	1045700260	25.052112	121.5303325	13	南京吉林路口	1045700260	25.052112	121.5303325		
14	廈安里	1006800300	25.030697	121.5041681	14	廈安里	1006800300	25.030697	121.5041681		
14	南京林森路口	1045400160	25.052167	121.5257174	14	南京林森路口	1045400160	25.052167	121.5257174		
15	捷運中山站(志仁高中)	1035200160	25.052867	121.519866	15	捷運中山站(志仁高中)	1035200160	25.052867	121.519866		
15	大埔街	1006800000	25.032684	121.504945	15	大埔街	1006800000	25.032684	121.504945		
16	聯合醫院和平院區	1006500101	25.0357	121.506607	16	聯合醫院和平院區	1006500101	25.0357	121.506607		
16	後車站	1034900160	25.051433	121.5151374	16	後車站	1034900160	25.051433	121.5151374		
17	捷運西門站	1084600300	25.04173	121.5082859	17	捷運西門站	1084600300	25.04173	121.5082859		
17	延平一站(長安)	1034100260	25.0519	121.513	17	延平一站(長安)	1034100260	25.0519	121.513		
18	中華路北站	1004200200	25.045696	121.5093807	18	中華路北站	1004200200	25.045696	121.5093807		
18	聯合醫院中興院區(塔城)	1034100640	25.051335	121.5103985	18	聯合醫院中興院區(塔城)	1034100640	25.051335	121.5103985		
19	捷運北門站	1034100140	25.049002	121.510134	19	捷運北門站	1034100140	25.049002	121.510134		
19	捷運北門站	1034100601	25.050609	121.5106101	19	捷運北門站	1034100601	25.050609	121.5106101		
2	果菜市場	1087200000	25.01987	121.497706	2	果菜市場	1087200000	25.01987	121.497706		
2	新東街口	1058900160	25.059272	121.5663967	2	新東街口	1058900160	25.059272	121.5663967		
20	延平一站(長安)	1034100220	25.05181	121.51269	20	延平一站(長安)	1034100220	25.05181	121.51269		
20	中華路北站	1084300040	25.045511	121.5091441	20	中華路北站	1084300040	25.045511	121.5091441		
21	圓環(重慶)	1035000300	25.052844	121.514207	21	圓環(重慶)	1035000300	25.052844	121.514207		
21	捷運西門站	1084400340	25.042516	121.5082667	21	捷運西門站	1084400340	25.042516	121.5082667		
22	圓環(南京)	1035000220	25.053651	121.5157054	22	圓環(南京)	1035000220	25.053651	121.5157054		
22	小南門	1085000040	25.037868	121.5069037	22	小南門	1085000040	25.037868	121.5069037		
23	捷運中山站(志仁高中)	1035200120	25.05271	121.5196749	23	捷運中山站(志仁高中)	1035200120	25.05271	121.5196749		
23	聯合醫院和平院區	1006500140	25.036493	121.5065075	23	聯合醫院和平院區	1006500140	25.036493	121.5065075		
24	南京林森路口	1045400120	25.052069	121.5250604	24	南京林森路口	1045400120	25.052069	121.5250604		
24	大埔街	1086200040	25.032074	121.5044162	24	大埔街	1086200040	25.032074	121.5044162		
25	廈安里	1088000140	25.02966	121.50438	25	廈安里	1088000140	25.02966	121.50438		
25	南京吉林路口	1045700220	25.052007	121.529855	25	南京吉林路口	1045700220	25.052007	121.529855		
26	捷運松江南京站	1045700420	25.051969	121.5327305	26	捷運松江南京站	1045700420	25.051969	121.5327305		
26	南機場公寓	1088000040	25.028384	121.5054653	26	南機場公寓	1088000040	25.028384	121.5054653		
27	長春國小	1048500120	25.05472	121.53409	27	長春國小	1048500120	25.05472	121.53409		
27	中華南海路口	1088100040	25.027343	121.5064379	27	中華南海路口	1088100040	25.027343	121.5064379		
28	臺北大學(臺北校區)	1048700020	25.054618	121.5386259	28	臺北大學(臺北校區)	1048700020	25.054618	121.5386259		
28	國興路口	1088100240	25.025621	121.508316	28	國興路口	1088100240	25.025621	121.508316		
29	長春市場	1048700120	25.054528	121.5417353	29	長春市場	1048700120	25.054528	121.5417353		
29	古亭國中	1088200020	25.024664	121.509833	29	古亭國中	1088200020	25.024664	121.509833		
3	光仁國小	1086100020	25.02122	121.5004577	3	光仁國小	1086100020	25.02122	121.5004577		
3	民生社區活動中心	1057300060	25.058808	121.5611445	3	民生社區活動中心	1057300060	25.058808	121.5611445		
30	萬華醫院	1007200140	25.02391	121.50982	30	萬華醫院	1007200140	25.02391	121.50982		
30	慶城街口	1054700220	25.0545	121.54574	30	慶城街口	1054700220	25.0545	121.54574		
31	長庚醫院	1050800000	25.05656	121.54929	31	長庚醫院	1050800000	25.05656	121.54929		
31	國興社區	1087700000	25.023497	121.5084584	31	國興社區	1087700000	25.023497	121.5084584		
32	青年公園(國興)	1088100100	25.024607	121.507953	32	青年公園(國興)	1088100100	25.024607	121.507953		
32	公教住宅	1057400020	25.057928	121.5525641	32	公教住宅	1057400020	25.057928	121.5525641		
33	青年公園(青年)	1087600140	25.025963	121.5060238	33	青年公園(青年)	1087600140	25.025963	121.5060238		
33	介壽國中	1057200020	25.058238	121.5557293	33	介壽國中	1057200020	25.058238	121.5557293		
34	青年社區	1087600240	25.025473	121.504417	34	青年社區	1087600240	25.025473	121.504417		
34	聯合二村	1057600220	25.058501	121.5592167	34	聯合二村	1057600220	25.058501	121.5592167		
35	中正新城	1087600040	25.0248	121.5031839	35	中正新城	1087600040	25.0248	121.5031839		
35	民生社區活動中心	1057300020	25.05864	121.560927	35	民生社區活動中心	1057300020	25.05864	121.560927		
36	青年路	1087500040	25.022481	121.502584	36	青年路	1087500040	25.022481	121.502584		
36	廣合新村	1058800100	25.06067	121.56339	36	廣合新村	1058800100	25.06067	121.56339		
37	三民國小	1059200020	25.06283	121.56362	37	三民國小	1059200020	25.06283	121.56362		
37	青年路派出所	1087400060	25.022046	121.5020378	37	青年路派出所	1087400060	25.022046	121.5020378		
38	新益里	1059200140	25.062286	121.566155	38	新益里	1059200140	25.062286	121.566155		
38	光仁國小	1087300060	25.021416	121.5006187	38	光仁國小	1087300060	25.021416	121.5006187		
39	果菜市場	1087200041	25.01942	121.497234	39	果菜市場	1087200041	25.01942	121.497234		
4	青年路派出所	1086000120	25.021996	121.5021881	4	青年路派出所	1086000120	25.021996	121.5021881		
4	聯合二村	1057600260	25.058624	121.5589234	4	聯合二村	1057600260	25.058624	121.5589234		
40	華中河濱公園	1087200140	25.01714	121.49565	40	華中河濱公園	1087200140	25.01714	121.49565		
5	青年路	1087500000	25.023084	121.5027448	5	青年路	1087500000	25.023084	121.5027448		
5	介壽國中	1057200060	25.058415	121.5560444	5	介壽國中	1057200060	25.058415	121.5560444		
6	中正新城	1087600000	25.024797	121.5032962	6	中正新城	1087600000	25.024797	121.5032962		
6	公教住宅	1057400060	25.058131	121.5526273	6	公教住宅	1057400060	25.058131	121.5526273		
7	民生敦化路口	1054600060	25.057851	121.5468517	7	民生敦化路口	1054600060	25.057851	121.5468517		
7	青年社區	1087600200	25.025478	121.504647	7	青年社區	1087600200	25.025478	121.504647		
8	興安華城	1048000340	25.05685	121.5439555	8	興安華城	1048000340	25.05685	121.5439555		
8	青年公園(青年)	1087600100	25.025964	121.5062868	8	青年公園(青年)	1087600100	25.025964	121.5062868		
9	長春市場	1047900160	25.054803	121.5416683	9	長春市場	1047900160	25.054803	121.5416683		
9	青年公園(國興)	1088200340	25.0253	121.50712	9	青年公園(國興)	1088200340	25.0253	121.50712		
											
14	100001400										
1	蘆洲站	2475600620	25.078535	121.4691805	1	蘆洲站	2475600620	25.078535	121.4691805		
1	行政院	1004100540	25.046484	121.5197596	1	行政院	1004100540	25.046484	121.5197596		
10	三民街	2416200260	25.06343	121.485248	10	三民街	2416200260	25.06343	121.485248		
10	捷運蘆洲站	2476000500	25.091486	121.4638568	10	捷運蘆洲站	2476000500	25.091486	121.4638568		
11	長榮路	2476500540	25.092312	121.4603296	11	長榮路	2476500540	25.092312	121.4603296		
11	東海中學	2416100760	25.065509	121.482592	11	東海中學	2416100760	25.065509	121.482592		
12	忠孝三民街口	2416100420	25.06698	121.481556	12	忠孝三民街口	2416100420	25.06698	121.481556		
12	永平市場	2476500040	25.090164	121.459433	12	永平市場	2476500040	25.090164	121.459433		
13	三重商工(中正北路)	2416200360	25.068996	121.479868	13	三重商工(中正北路)	2416200360	25.068996	121.479868		
13	永樂街	2476700060	25.088362	121.458711	13	永樂街	2476700060	25.088362	121.458711		
14	長安街	2476100240	25.087981	121.4572506	14	長安街	2476100240	25.087981	121.4572506		
14	博愛新村	2415700460	25.069522	121.4776879	14	博愛新村	2415700460	25.069522	121.4776879		
15	成功國小	2476100140	25.08625	121.4573852	15	成功國小	2476100140	25.08625	121.4573852		
15	仙公廟	2415700360	25.07155	121.4737968	15	仙公廟	2415700360	25.07155	121.4737968		
16	永康公園	2476100040	25.084758	121.458052	16	永康公園	2476100040	25.084758	121.458052		
16	穀保家商	2415700660	25.072137	121.47112	16	穀保家商	2415700660	25.072137	121.47112		
17	褒仔寮	2487200160	25.072575	121.4683812	17	褒仔寮	2487200160	25.072575	121.4683812		
17	長安街一	2476300640	25.082792	121.4593921	17	長安街一	2476300640	25.082792	121.4593921		
18	大同新村	2487400000	25.074202	121.46775	18	大同新村	2487400000	25.074202	121.46775		
18	忠義廟	2476300340	25.081153	121.4611032	18	忠義廟	2476300340	25.081153	121.4611032		
19	永安里	2475000500	25.077839	121.468953	19	永安里	2475000500	25.077839	121.468953		
19	延平里	2476400140	25.079614	121.4631595	19	延平里	2476400140	25.079614	121.4631595		
2	臺北車站(忠孝)	1004100761	25.047409	121.5139852	2	臺北車站(忠孝)	1004100761	25.047409	121.5139852		
2	和平路口	2475600300	25.079471	121.469744	2	和平路口	2475600300	25.079471	121.469744		
20	九芎街口	2475000160	25.078631	121.468493	20	九芎街口	2475000160	25.078631	121.468493		
20	九芎街	2475000000	25.07935	121.465375	20	九芎街	2475000000	25.07935	121.465375		
21	九芎廟	2475000240	25.078995	121.4665749	21	九芎廟	2475000240	25.078995	121.4665749		
21	九芎廟	2475000200	25.079227	121.466562	21	九芎廟	2475000200	25.079227	121.466562		
22	九芎街口	2475000120	25.07848	121.46855	22	九芎街口	2475000120	25.07848	121.46855		
22	九芎街	2475000040	25.07899	121.46489	22	九芎街	2475000040	25.07899	121.46489		
23	永安里	2475000540	25.077997	121.468829	23	永安里	2475000540	25.077997	121.468829		
23	延平里	2476400100	25.07973	121.4632078	23	延平里	2476400100	25.07973	121.4632078		
24	大同新村	2487400040	25.075184	121.4679157	24	大同新村	2487400040	25.075184	121.4679157		
24	忠義廟	2476300300	25.081292	121.461196	24	忠義廟	2476300300	25.081292	121.461196		
25	褒仔寮	2487200120	25.07235	121.468721	25	褒仔寮	2487200120	25.07235	121.468721		
25	長安街一	2476200300	25.08286	121.45954	25	長安街一	2476200300	25.08286	121.45954		
26	穀保家商	2415700620	25.072073	121.4706925	26	穀保家商	2415700620	25.072073	121.4706925		
26	永康公園	2476100000	25.084877	121.4581955	26	永康公園	2476100000	25.084877	121.4581955		
27	成功國小	2476100100	25.086317	121.4575421	27	成功國小	2476100100	25.086317	121.4575421		
27	仙公廟	2415700320	25.071403	121.473752	27	仙公廟	2415700320	25.071403	121.473752		
28	長安街	2476100200	25.087758	121.4573378	28	長安街	2476100200	25.087758	121.4573378		
28	博愛新村	2415700420	25.069419	121.477545	28	博愛新村	2415700420	25.069419	121.477545		
29	永樂街	2476700020	25.088157	121.458516	29	永樂街	2476700020	25.088157	121.458516		
29	三重商工(中正北路)	2416200320	25.06855	121.48052	29	三重商工(中正北路)	2416200320	25.06855	121.48052		
3	重安街口	2414300800	25.056951	121.4941915	3	重安街口	2414300800	25.056951	121.4941915		
3	蘆洲監理站(中正路)	2475600800	25.081845	121.4716472	3	蘆洲監理站(中正路)	2475600800	25.081845	121.4716472		
30	永平市場	2476500000	25.090129	121.459668	30	永平市場	2476500000	25.090129	121.459668		
30	忠孝三民街口	2416200860	25.066998	121.481324	30	忠孝三民街口	2416200860	25.066998	121.481324		
31	長榮路	2476500500	25.09233	121.4606387	31	長榮路	2476500500	25.09233	121.4606387		
31	東海中學	2416100720	25.065398	121.482301	31	東海中學	2416100720	25.065398	121.482301		
32	三民街	2416200220	25.063325	121.485128	32	三民街	2416200220	25.063325	121.485128		
32	捷運蘆洲站	2476000540	25.09079	121.465126	32	捷運蘆洲站	2476000540	25.09079	121.465126		
33	民族路口	2476000140	25.089515	121.4681391	33	民族路口	2476000140	25.089515	121.4681391		
33	三重稅捐分處	2410300040	25.060305	121.486632	33	三重稅捐分處	2410300040	25.060305	121.486632		
34	王爺廟口	2475900640	25.08814	121.46664	34	王爺廟口	2475900640	25.08814	121.46664		
34	菜寮(重陽路)	2416101240	25.058009	121.486516	34	菜寮(重陽路)	2416101240	25.058009	121.486516		
35	菜寮(重新路)	2414400620	25.057218	121.487921	35	菜寮(重新路)	2414400620	25.057218	121.487921		
35	空中大學(中正路)	2475900940	25.086711	121.4677982	35	空中大學(中正路)	2475900940	25.086711	121.4677982		
36	捷運菜寮站	2414301020	25.059073	121.4905425	36	捷運菜寮站	2414301020	25.059073	121.4905425		
36	中原公寓	2475800040	25.085747	121.4684977	36	中原公寓	2475800040	25.085747	121.4684977		
37	中山藝術公園	2414300120	25.060432	121.4925214	37	中山藝術公園	2414300120	25.060432	121.4925214		
37	蘆洲國小	2475700540	25.08302	121.470464	37	蘆洲國小	2475700540	25.08302	121.470464		
38	中正南路	2414300240	25.059275	121.4940315	38	中正南路	2414300240	25.059275	121.4940315		
38	蘆洲監理站	2475600860	25.081456	121.4714493	38	蘆洲監理站	2475600860	25.081456	121.4714493		
39	和平路口	2475600340	25.07953	121.4694739	39	和平路口	2475600340	25.07953	121.4694739		
39	重安街口	2414300840	25.057057	121.4939169	39	重安街口	2414300840	25.057057	121.4939169		
4	蘆洲國小	2475700500	25.0833	121.4703582	4	蘆洲國小	2475700500	25.0833	121.4703582		
4	中正南路	2414300200	25.059629	121.494168	4	中正南路	2414300200	25.059629	121.494168		
40	臺北車站(鄭州)	1035100420	25.048497	121.5171976	40	臺北車站(鄭州)	1035100420	25.048497	121.5171976		
40	蘆洲站	2475600620	25.078535	121.4691805	40	蘆洲站	2475600620	25.078535	121.4691805		
5	中山藝術公園	2414300160	25.060541	121.492298	5	中山藝術公園	2414300160	25.060541	121.492298		
5	中原公寓	2475800000	25.085252	121.469088	5	中原公寓	2475800000	25.085252	121.469088		
6	捷運菜寮站	2414100860	25.059479	121.490697	6	捷運菜寮站	2414100860	25.059479	121.490697		
6	空中大學(中正路)	2475900900	25.087176	121.467676	6	空中大學(中正路)	2475900900	25.087176	121.467676		
7	菜寮(重新路)	2414400660	25.057446	121.4878276	7	菜寮(重新路)	2414400660	25.057446	121.4878276		
7	王爺廟口	2475900600	25.08809	121.466902	7	王爺廟口	2475900600	25.08809	121.466902		
8	菜寮(重陽路)	2416101200	25.057718	121.4867994	8	菜寮(重陽路)	2416101200	25.057718	121.4867994		
8	民族路口	2476000100	25.090065	121.467789	8	民族路口	2476000100	25.090065	121.467789		
9	捷運蘆洲站	2476000501	25.091246	121.4647878	9	捷運蘆洲站	2476000501	25.091246	121.4647878		
9	三重稅捐分處	2416100200	25.060408	121.4869182	9	三重稅捐分處	2416100200	25.060408	121.4869182		
											
18	100001800										
1	華江站	1037600320	25.032283	121.4889513	1	華江站	1037600320	25.032283	121.4889513		
1	黎忠市場	1105700060	25.019475	121.557953	1	黎忠市場	1105700060	25.019475	121.557953		
10	大安森林公園	1066200060	25.025928	121.5363198	10	大安森林公園	1066200060	25.025928	121.5363198		
10	西門市場(漢中)	1084600000	25.04202	121.507436	10	西門市場(漢中)	1084600000	25.04202	121.507436		
11	溫州街口	1064400460	25.026354	121.5326938	11	溫州街口	1064400460	25.026354	121.5326938		
11	寶慶路	1004300220	25.041491	121.509834	11	寶慶路	1004300220	25.041491	121.509834		
12	師大綜合大樓	1064400360	25.026622	121.53006	12	師大綜合大樓	1064400360	25.026622	121.53006		
12	博愛路	1004500100	25.043262	121.511555	12	博愛路	1004500100	25.043262	121.511555		
13	師大	1064400260	25.026738	121.5277134	13	師大	1064400260	25.026738	121.5277134		
13	臺北郵局	1004300000	25.046765	121.5112936	13	臺北郵局	1004300000	25.046765	121.5112936		
14	捷運古亭站(和平)	1064300261	25.027172	121.523152	14	捷運古亭站(和平)	1064300261	25.027172	121.523152		
14	臺北車站(忠孝)	1004700421	25.046815	121.5145215	14	臺北車站(忠孝)	1004700421	25.046815	121.5145215		
15	羅斯福潮州街口	1009300500	25.02922	121.52096	15	羅斯福潮州街口	1009300500	25.02922	121.52096		
15	臺大醫院	1005500340	25.042497	121.5185042	15	臺大醫院	1005500340	25.042497	121.5185042		
16	捷運中正紀念堂站(中山)	1000100040	25.03643	121.51673	16	捷運中正紀念堂站(中山)	1000100040	25.03643	121.51673		
16	捷運中正紀念堂站(羅斯福)	1009300100	25.032297	121.518848	16	捷運中正紀念堂站(羅斯福)	1009300100	25.032297	121.518848		
17	捷運中正紀念堂站(勞保局)	1006600820	25.033718	121.5173063	17	捷運中正紀念堂站(勞保局)	1006600820	25.033718	121.5173063		
17	一女中(公園)	1004800000	25.036828	121.5151365	17	一女中(公園)	1004800000	25.036828	121.5151365		
18	自來水西分處(寧波)	1007500020	25.029828	121.5157	18	自來水西分處(寧波)	1007500020	25.029828	121.5157		
18	捷運台大醫院站	1004801100	25.041927	121.5163535	18	捷運台大醫院站	1004801100	25.041927	121.5163535		
19	聯合醫院婦幼院區一	1007500340	25.029987	121.5180375	19	聯合醫院婦幼院區一	1007500340	25.029987	121.5180375		
19	博物館(館前)	1004700200	25.044177	121.5150573	19	博物館(館前)	1004700200	25.044177	121.5150573		
2	富陽街口	1105600060	25.021127	121.55616	2	富陽街口	1105600060	25.021127	121.55616		
2	人壽一村	1085800020	25.031523	121.4902758	2	人壽一村	1085800020	25.031523	121.4902758		
20	南昌家具街	1008400140	25.027364	121.520315	20	南昌家具街	1008400140	25.027364	121.520315		
20	臺北車站(開封)	1004700560	25.046027	121.513879	20	臺北車站(開封)	1004700560	25.046027	121.513879		
21	捷運古亭站(和平)	1064300220	25.026787	121.5246159	21	捷運古亭站(和平)	1064300220	25.026787	121.5246159		
21	重慶南路一段	1000500042	25.044432	121.513114	21	重慶南路一段	1000500042	25.044432	121.513114		
22	師大	1061000020	25.026535	121.5277715	22	師大	1061000020	25.026535	121.5277715		
22	二二八和平公園	1004500060	25.042368	121.5125439	22	二二八和平公園	1004500060	25.042368	121.5125439		
23	師大綜合大樓	1064400320	25.026362	121.529958	23	師大綜合大樓	1064400320	25.026362	121.529958		
23	衡陽路	1000900060	25.04227	121.51021	23	衡陽路	1000900060	25.04227	121.51021		
24	西門市場(成都)	1084400160	25.042689	121.5066535	24	西門市場(成都)	1084400160	25.042689	121.5066535		
24	溫州街口	1067100420	25.026097	121.5330125	24	溫州街口	1067100420	25.026097	121.5330125		
25	大安森林公園	1066200020	25.025735	121.5362358	25	大安森林公園	1066200020	25.025735	121.5362358		
25	西寧南路	1084600140	25.03991	121.50604	25	西寧南路	1084600140	25.03991	121.50604		
26	龍門國中(和平)	1066200220	25.025407	121.5384921	26	龍門國中(和平)	1066200220	25.025407	121.5384921		
26	桂林昆明街口	1084900160	25.0381	121.5043	26	桂林昆明街口	1084900160	25.0381	121.5043		
27	復興南路口	1062200020	25.024914	121.5422397	27	復興南路口	1062200020	25.024914	121.5422397		
27	桂林路	1084800160	25.038472	121.5008151	27	桂林路	1084800160	25.038472	121.5008151		
28	國立臺北教育大學	1067000120	25.024603	121.5453433	28	國立臺北教育大學	1067000120	25.024603	121.5453433		
28	萬華分局	1085300060	25.03861	121.4980643	28	萬華分局	1085300060	25.03861	121.4980643		
29	臥龍街	1066900020	25.024522	121.547571	29	臥龍街	1066900020	25.024522	121.547571		
29	龍山國小	1085400040	25.03611	121.49478	29	龍山國小	1085400040	25.03611	121.49478		
3	捷運六張犁站(和平)	1067400060	25.022926	121.554225	3	捷運六張犁站(和平)	1067400060	25.022926	121.554225		
3	大理高中	1088300000	25.031919	121.491328	3	大理高中	1088300000	25.031919	121.491328		
30	和平安和路口	1067500120	25.024272	121.5508618	30	和平安和路口	1067500120	25.024272	121.5508618		
30	華江派出所	1088300140	25.034006	121.493016	30	華江派出所	1088300140	25.034006	121.493016		
31	捷運六張犁站(和平)	1067400020	25.023243	121.5535345	31	捷運六張犁站(和平)	1067400020	25.023243	121.5535345		
31	力霸社區	1085700070	25.034167	121.490111	31	力霸社區	1085700070	25.034167	121.490111		
32	華江站	1085800340	25.032439	121.4888933	32	華江站	1085800340	25.032439	121.4888933		
32	富陽街口	1067400120	25.021034	121.5559108	32	富陽街口	1067400120	25.021034	121.5559108		
33	黎忠市場	1067600520	25.01926	121.5578044	33	黎忠市場	1067600520	25.01926	121.5578044		
34	捷運麟光站	1067600320	25.01825	121.55853	34	捷運麟光站	1067600320	25.01825	121.55853		
4	和平安和路口	1067500161	25.024622	121.5513507	4	和平安和路口	1067500161	25.024622	121.5513507		
4	華江派出所	1088300100	25.034114	121.4933405	4	華江派出所	1088300100	25.034114	121.4933405		
5	臥龍街	1066900060	25.024707	121.5474978	5	臥龍街	1066900060	25.024707	121.5474978		
5	龍山國小	1085400000	25.0362	121.4953	5	龍山國小	1085400000	25.0362	121.4953		
6	國立臺北教育大學	1067000160	25.024826	121.5448151	6	國立臺北教育大學	1067000160	25.024826	121.5448151		
6	萬華分局	1085300020	25.038421	121.4979101	6	萬華分局	1085300020	25.038421	121.4979101		
7	復興南路口	1066400460	25.025103	121.5423761	7	復興南路口	1066400460	25.025103	121.5423761		
7	桂林路	1084800120	25.038354	121.5011027	7	桂林路	1084800120	25.038354	121.5011027		
8	國北教大實小	1066400160	25.02532	121.54065	8	國北教大實小	1066400160	25.02532	121.54065		
8	昆明活動中心	1085000100	25.038711	121.5040228	8	昆明活動中心	1085000100	25.038711	121.5040228		
9	內江街	1084500020	25.041538	121.5051324	9	內江街	1084500020	25.041538	121.5051324		
9	龍門國中(和平)	1066400660	25.025527	121.5391542	9	龍門國中(和平)	1066400660	25.025527	121.5391542		
											
20	100002000										
1	永春高中	1108000000	25.033446	121.5797804	1	永春高中	1108000000	25.033446	121.5797804		
1	國興路口一	1088100300	25.024585	121.5088101	1	國興路口一	1088100300	25.024585	121.5088101		
10	信義光復路口	1105200260	25.0331	121.55813	10	信義光復路口	1105200260	25.0331	121.55813		
10	寶慶路	1004300220	25.041491	121.509834	10	寶慶路	1004300220	25.041491	121.509834		
11	信義通化街口	1067900460	25.033193	121.5546221	11	信義通化街口	1067900460	25.033193	121.5546221		
11	衡陽路口	1004500200	25.042018	121.5132	11	衡陽路口	1004500200	25.042018	121.5132		
12	博物館(襄陽)	1004600220	25.043339	121.5157262	12	博物館(襄陽)	1004600220	25.043339	121.5157262		
12	捷運信義安和站(信義)	1068500360	25.033223	121.552849	12	捷運信義安和站(信義)	1068500360	25.033223	121.552849		
13	捷運台大醫院站	1004600040	25.041935	121.5161481	13	捷運台大醫院站	1004600040	25.041935	121.5161481		
13	信義敦化路口	1068500260	25.033377	121.549449	13	信義敦化路口	1068500260	25.033377	121.549449		
14	中正紀念堂	1004800920	25.037153	121.520771	14	中正紀念堂	1004800920	25.037153	121.520771		
14	信義大安路口	1068400060	25.033383	121.5461666	14	信義大安路口	1068400060	25.033383	121.5461666		
15	信義杭州路口	1004800820	25.0357	121.5238361	15	信義杭州路口	1004800820	25.0357	121.5238361		
15	捷運大安站(信義)	1068400260	25.033404	121.5438266	15	捷運大安站(信義)	1068400260	25.033404	121.5438266		
16	師大附中	1065800360	25.033382	121.542275	16	師大附中	1065800360	25.033382	121.542275		
16	捷運東門站	1064100120	25.034134	121.5269937	16	捷運東門站	1064100120	25.034134	121.5269937		
17	信義建國路口	1065800160	25.033595	121.538468	17	信義建國路口	1065800160	25.033595	121.538468		
17	信義永康街口(捷運東門站)	1065000320	25.033693	121.529727	17	信義永康街口(捷運東門站)	1065000320	25.033693	121.529727		
18	捷運大安森林公園站	1065600460	25.03355	121.5359159	18	捷運大安森林公園站	1065600460	25.03355	121.5359159		
18	信義新生路口	1006100020	25.03353	121.5323283	18	信義新生路口	1006100020	25.03353	121.5323283		
19	捷運大安森林公園站	1065600420	25.033496	121.5356316	19	捷運大安森林公園站	1065600420	25.033496	121.5356316		
19	信義新生路口	1065600360	25.033627	121.5331327	19	信義新生路口	1065600360	25.033627	121.5331327		
2	國興路口	1006700300	25.025757	121.508379	2	國興路口	1006700300	25.025757	121.508379		
2	松山商職(松山)	1107600100	25.036029	121.578609	2	松山商職(松山)	1107600100	25.036029	121.578609		
20	信義建國路口	1065800120	25.033441	121.539045	20	信義建國路口	1065800120	25.033441	121.539045		
20	信義永康街口	1065100260	25.033765	121.5301447	20	信義永康街口	1065100260	25.033765	121.5301447		
21	捷運大安站(信義)	1065800420	25.033323	121.5432319	21	捷運大安站(信義)	1065800420	25.033323	121.5432319		
21	捷運東門站	1005700060	25.034232	121.526986	21	捷運東門站	1005700060	25.034232	121.526986		
22	信義杭州路口	1004800860	25.035417	121.5246296	22	信義杭州路口	1004800860	25.035417	121.5246296		
22	信義大安路口	1068300220	25.0332	121.5456	22	信義大安路口	1068300220	25.0332	121.5456		
23	信義敦化路口	1068100120	25.033262	121.548298	23	信義敦化路口	1068100120	25.033262	121.548298		
23	中正紀念堂	1004800960	25.03739	121.52056	23	中正紀念堂	1004800960	25.03739	121.52056		
24	捷運信義安和站(信義)	1068500320	25.033142	121.551229	24	捷運信義安和站(信義)	1068500320	25.033142	121.551229		
24	捷運台大醫院站	1004801100	25.041927	121.5163535	24	捷運台大醫院站	1004801100	25.041927	121.5163535		
25	信義通化街口	1067900420	25.033087	121.5539941	25	信義通化街口	1067900420	25.033087	121.5539941		
25	博物館(襄陽)	1004600360	25.043453	121.5154942	25	博物館(襄陽)	1004600360	25.043453	121.5154942		
26	衡陽路口	1004500240	25.042568	121.513172	26	衡陽路口	1004500240	25.042568	121.513172		
26	信義光復路口	1067900320	25.03311	121.55687	26	信義光復路口	1067900320	25.03311	121.55687		
27	世貿中心(基隆路)	1105100100	25.033677	121.5601565	27	世貿中心(基隆路)	1105100100	25.033677	121.5601565		
27	衡陽路	1004300160	25.0423	121.51088	27	衡陽路	1004300160	25.0423	121.51088		
28	市政府(松壽)	1105100320	25.035836	121.5648932	28	市政府(松壽)	1105100320	25.035836	121.5648932		
28	捷運西門站	1084600340	25.041649	121.5078873	28	捷運西門站	1084600340	25.041649	121.5078873		
29	小南門	1085000340	25.038008	121.5068125	29	小南門	1085000340	25.038008	121.5068125		
29	松壽路口	1105100420	25.035784	121.5674077	29	松壽路口	1105100420	25.035784	121.5674077		
3	中華南海路口	1006700100	25.027236	121.5066611	3	中華南海路口	1006700100	25.027236	121.5066611		
3	國業里	1107800360	25.03555	121.57704	3	國業里	1107800360	25.03555	121.57704		
30	聯合醫院和平院區	1006500140	25.036493	121.5065075	30	聯合醫院和平院區	1006500140	25.036493	121.5065075		
30	信義松仁路口(松仁)	1105800440	25.034535	121.568236	30	信義松仁路口(松仁)	1105800440	25.034535	121.568236		
31	大埔街	1086200040	25.032074	121.5044162	31	大埔街	1086200040	25.032074	121.5044162		
31	捷運象山站	1104700720	25.032648	121.568984	31	捷運象山站	1104700720	25.032648	121.568984		
32	廈安里	1086100540	25.030562	121.5040856	32	廈安里	1086100540	25.030562	121.5040856		
32	國稅局宿舍	1108500020	25.03433	121.575678	32	國稅局宿舍	1108500020	25.03433	121.575678		
33	南機場公寓	1088000040	25.028384	121.5054653	33	南機場公寓	1088000040	25.028384	121.5054653		
33	松山商職(福德)	1107700520	25.036219	121.5787474	33	松山商職(福德)	1107700520	25.036219	121.5787474		
34	永春高中	1108000040	25.033484	121.5796725	34	永春高中	1108000040	25.033484	121.5796725		
34	中華南海路口	1088100040	25.027343	121.5064379	34	中華南海路口	1088100040	25.027343	121.5064379		
35	國興路口	1088100240	25.025621	121.508316	35	國興路口	1088100240	25.025621	121.508316		
36	古亭國中	1088200020	25.024664	121.509833	36	古亭國中	1088200020	25.024664	121.509833		
37	萬華醫院	1007200140	25.02391	121.50982	37	萬華醫院	1007200140	25.02391	121.50982		
38	青年公園(交通教學區)	1088200160	25.02149	121.50643	38	青年公園(交通教學區)	1088200160	25.02149	121.50643		
39	青年公園(馬場町)	1088200200	25.02023	121.5039	39	青年公園(馬場町)	1088200200	25.02023	121.5039		
4	國稅局宿舍	1108500060	25.034442	121.575497	4	國稅局宿舍	1108500060	25.034442	121.575497		
4	南機場公寓	1006900000	25.028591	121.5054077	4	南機場公寓	1006900000	25.028591	121.5054077		
40	青年社宅	1087600300	25.021587	121.502643	40	青年社宅	1087600300	25.021587	121.502643		
41	青年路	1087500000	25.023084	121.5027448	41	青年路	1087500000	25.023084	121.5027448		
42	中正新城	1087600000	25.024797	121.5032962	42	中正新城	1087600000	25.024797	121.5032962		
43	青年社區	1087600200	25.025478	121.504647	43	青年社區	1087600200	25.025478	121.504647		
44	青年公園(青年)	1087600100	25.025964	121.5062868	44	青年公園(青年)	1087600100	25.025964	121.5062868		
45	青年公園(國興)	1088200340	25.0253	121.50712	45	青年公園(國興)	1088200340	25.0253	121.50712		
5	廈安里	1006800300	25.030697	121.5041681	5	廈安里	1006800300	25.030697	121.5041681		
5	捷運象山站	1107300660	25.033006	121.570056	5	捷運象山站	1107300660	25.033006	121.570056		
6	大埔街	1006800000	25.032684	121.504945	6	大埔街	1006800000	25.032684	121.504945		
6	信義松仁路口(松仁)	1105800400	25.03369	121.5684464	6	信義松仁路口(松仁)	1105800400	25.03369	121.5684464		
7	松壽路口	1105100460	25.035881	121.5666401	7	松壽路口	1105100460	25.035881	121.5666401		
7	聯合醫院和平院區	1006500101	25.0357	121.506607	7	聯合醫院和平院區	1006500101	25.0357	121.506607		
8	市政府(松壽)	1105100360	25.035907	121.5646562	8	市政府(松壽)	1105100360	25.035907	121.5646562		
8	小南門	1004200000	25.038213	121.5073666	8	小南門	1004200000	25.038213	121.5073666		
9	捷運西門站	1004200400	25.040946	121.5082192	9	捷運西門站	1004200400	25.040946	121.5082192		
9	世貿中心(基隆路)	1105100140	25.033772	121.5597982	9	世貿中心(基隆路)	1105100140	25.033772	121.5597982		
											
21	100002100										
1	捷運圓山站	1036700500	25.069744	121.520216	1	捷運圓山站	1036700500	25.069744	121.520216		
1	成功路三段	1146000260	25.079854	121.589838	1	成功路三段	1146000260	25.079854	121.589838		
10	仁寶大樓	1149200020	25.079213	121.5684974	10	仁寶大樓	1149200020	25.079213	121.5684974		
10	基湖站	1149200340	25.07973	121.5646071	10	基湖站	1149200340	25.07973	121.5646071		
11	堤頂大道口	1046201540	25.07666	121.56305	11	堤頂大道口	1046201540	25.07666	121.56305		
11	瑞光路393巷	1149200200	25.07768	121.57298	11	瑞光路393巷	1149200200	25.07768	121.57298		
12	明水路三	1046200760	25.07742	121.54947	12	明水路三	1046200760	25.07742	121.54947		
12	捷運港墘站(內湖高工)	1144400220	25.080149	121.5746181	12	捷運港墘站(內湖高工)	1144400220	25.080149	121.5746181		
13	大直抽水站	1046500060	25.07757	121.54534	13	大直抽水站	1046500060	25.07757	121.54534		
13	西湖圖書館(湖光教會)	1144700021	25.078956	121.57768	13	西湖圖書館(湖光教會)	1144700021	25.078956	121.57768		
14	北安國中	1046500360	25.07768	121.54181	14	北安國中	1046500360	25.07768	121.54181		
14	內湖國小	1146400020	25.07929	121.5812755	14	內湖國小	1146400020	25.07929	121.5812755		
15	忠烈祠	1040400060	25.078002	121.5355521	15	忠烈祠	1040400060	25.078002	121.5355521		
15	達人高中(臺灣戲曲學院)	1146400620	25.08114	121.5868	15	達人高中(臺灣戲曲學院)	1146400620	25.08114	121.5868		
16	中央電台	1046200460	25.078128	121.5301447	16	中央電台	1046200460	25.078128	121.5301447		
16	內湖派出所	1144900020	25.081788	121.5894925	16	內湖派出所	1144900020	25.081788	121.5894925		
17	圓山大飯店	1046201660	25.077322	121.5279642	17	圓山大飯店	1046201660	25.077322	121.5279642		
18	臺北市立美術館	1046100240	25.070066	121.5230951	18	臺北市立美術館	1046100240	25.070066	121.5230951		
19	花博公園	1045200160	25.068595	121.5207983	19	花博公園	1045200160	25.068595	121.5207983		
2	內湖高中	1147500060	25.079013	121.5883097	2	內湖高中	1147500060	25.079013	121.5883097		
2	臺北市立美術館	1046100200	25.072224	121.5240266	2	臺北市立美術館	1046100200	25.072224	121.5240266		
20	捷運圓山站	1036500240	25.069195	121.5199738	20	捷運圓山站	1036500240	25.069195	121.5199738		
3	捷運文德站(碧湖公園)	1147500260	25.078585	121.584249	3	捷運文德站(碧湖公園)	1147500260	25.078585	121.584249		
3	圓山大飯店	1046201620	25.07727	121.5281673	3	圓山大飯店	1046201620	25.07727	121.5281673		
4	中央電台	1046200420	25.077925	121.5300006	4	中央電台	1046200420	25.077925	121.5300006		
4	湖光國宅	1147300060	25.07859	121.58078	4	湖光國宅	1147300060	25.07859	121.58078		
5	西湖圖書館(湖光教會)	1144700061	25.07889	121.578499	5	西湖圖書館(湖光教會)	1144700061	25.07889	121.578499		
5	忠烈祠	1046200520	25.078004	121.5319142	5	忠烈祠	1046200520	25.078004	121.5319142		
6	港墘派出所	1144800240	25.078636	121.57619	6	港墘派出所	1144800240	25.078636	121.57619		
6	經國七海文化園區	1046200020	25.077782	121.535397	6	經國七海文化園區	1046200020	25.077782	121.535397		
7	瑞光港墘路口	1149200760	25.077273	121.573134	7	瑞光港墘路口	1149200760	25.077273	121.573134		
7	堤頂大道口	1046201500	25.07839	121.56405	7	堤頂大道口	1046201500	25.07839	121.56405		
8	仁寶大樓	1149200060	25.079478	121.568256	8	仁寶大樓	1149200060	25.079478	121.568256		
8	基湖站	1149200300	25.0801	121.56489	8	基湖站	1149200300	25.0801	121.56489		
9	基湖路口	1149200560	25.080515	121.5659034	9	基湖路口	1149200560	25.080515	121.5659034		
9	基湖路口	1149200520	25.08025	121.5662362	9	基湖路口	1149200520	25.08025	121.5662362		
											
22	100002200										
1	吳興街站	1104600100	25.02324	121.56976	1	吳興街站	1104600100	25.02324	121.56976		
1	博愛路	1004500100	25.043262	121.511555	1	博愛路	1004500100	25.043262	121.511555		
10	捷運信義安和站(信義)	1068500360	25.033223	121.552849	10	捷運信義安和站(信義)	1068500360	25.033223	121.552849		
10	信義新生路口	1006100020	25.03353	121.5323283	10	信義新生路口	1006100020	25.03353	121.5323283		
11	信義敦化路口	1068500260	25.033377	121.549449	11	信義敦化路口	1068500260	25.033377	121.549449		
11	捷運大安森林公園站	1065600420	25.033496	121.5356316	11	捷運大安森林公園站	1065600420	25.033496	121.5356316		
12	信義建國路口	1065800120	25.033441	121.539045	12	信義建國路口	1065800120	25.033441	121.539045		
12	信義大安路口	1068400060	25.033383	121.5461666	12	信義大安路口	1068400060	25.033383	121.5461666		
13	捷運大安站(信義)	1065800420	25.033323	121.5432319	13	捷運大安站(信義)	1065800420	25.033323	121.5432319		
13	捷運大安站(信義)	1068400260	25.033404	121.5438266	13	捷運大安站(信義)	1068400260	25.033404	121.5438266		
14	信義大安路口	1068300220	25.0332	121.5456	14	信義大安路口	1068300220	25.0332	121.5456		
14	師大附中	1065800360	25.033382	121.542275	14	師大附中	1065800360	25.033382	121.542275		
15	信義建國路口	1065800160	25.033595	121.538468	15	信義建國路口	1065800160	25.033595	121.538468		
15	信義敦化路口	1068100120	25.033262	121.548298	15	信義敦化路口	1068100120	25.033262	121.548298		
16	捷運大安森林公園站	1065600460	25.03355	121.5359159	16	捷運大安森林公園站	1065600460	25.03355	121.5359159		
16	捷運信義安和站(信義)	1068500320	25.033142	121.551229	16	捷運信義安和站(信義)	1068500320	25.033142	121.551229		
17	信義新生路口	1065600360	25.033627	121.5331327	17	信義新生路口	1065600360	25.033627	121.5331327		
17	信義通化街口	1067900420	25.033087	121.5539941	17	信義通化街口	1067900420	25.033087	121.5539941		
18	信義光復路口	1067900320	25.03311	121.55687	18	信義光復路口	1067900320	25.03311	121.55687		
18	信義永康街口	1065100260	25.033765	121.5301447	18	信義永康街口	1065100260	25.033765	121.5301447		
19	捷運東門站	1005700060	25.034232	121.526986	19	捷運東門站	1005700060	25.034232	121.526986		
19	世貿中心(莊敬)	1104900140	25.031446	121.56127	19	世貿中心(莊敬)	1104900140	25.031446	121.56127		
2	松仁路	1104600200	25.02453	121.5695997	2	松仁路	1104600200	25.02453	121.5695997		
2	臺北郵局	1004300000	25.046765	121.5112936	2	臺北郵局	1004300000	25.046765	121.5112936		
20	信義杭州路口	1004800860	25.035417	121.5246296	20	信義杭州路口	1004800860	25.035417	121.5246296		
20	景新里	1104900440	25.02923	121.5624103	20	景新里	1104900440	25.02923	121.5624103		
21	中正紀念堂	1004800960	25.03739	121.52056	21	中正紀念堂	1004800960	25.03739	121.52056		
21	臺北醫學大學	1105000340	25.028273	121.5632643	21	臺北醫學大學	1105000340	25.028273	121.5632643		
22	臺大醫院	1005500300	25.041403	121.5185552	22	臺大醫院	1005500300	25.041403	121.5185552		
22	信義國中(莊敬)	1105000240	25.027402	121.565724	22	信義國中(莊敬)	1105000240	25.027402	121.565724		
23	臺北車站(忠孝)	1004100760	25.04654	121.5167218	23	臺北車站(忠孝)	1004100760	25.04654	121.5167218		
23	吳興國小(莊敬)	1105000020	25.026725	121.568122	23	吳興國小(莊敬)	1105000020	25.026725	121.568122		
24	臺北車站(重慶)	1004400240	25.046565	121.5132058	24	臺北車站(重慶)	1004400240	25.046565	121.5132058		
24	松仁路	1104600240	25.024432	121.569585	24	松仁路	1104600240	25.024432	121.569585		
25	吳興街站	1104600100	25.02324	121.56976	25	吳興街站	1104600100	25.02324	121.56976		
25	重慶南路一段	1000500042	25.044432	121.513114	25	重慶南路一段	1000500042	25.044432	121.513114		
26	二二八和平公園	1004500060	25.042368	121.5125439	26	二二八和平公園	1004500060	25.042368	121.5125439		
3	臺北車站(忠孝)	1004700421	25.046815	121.5145215	3	臺北車站(忠孝)	1004700421	25.046815	121.5145215		
3	吳興國小(松仁)	1104600000	25.026234	121.568628	3	吳興國小(松仁)	1104600000	25.026234	121.568628		
4	捷運善導寺站	1005800120	25.044844	121.522629	4	捷運善導寺站	1005800120	25.044844	121.522629		
4	信義國中(莊敬)	1105000200	25.027607	121.56521	4	信義國中(莊敬)	1105000200	25.027607	121.56521		
5	開南中學	1005500240	25.041611	121.522214	5	開南中學	1005500240	25.041611	121.522214		
5	臺北醫學大學	1105000300	25.028241	121.5634888	5	臺北醫學大學	1105000300	25.028241	121.5634888		
6	仁愛林森路口	1005200141	25.039391	121.521603	6	仁愛林森路口	1005200141	25.039391	121.521603		
6	景新里	1104900400	25.029526	121.5623852	6	景新里	1104900400	25.029526	121.5623852		
7	信義杭州路口	1004800820	25.0357	121.5238361	7	信義杭州路口	1004800820	25.0357	121.5238361		
7	世貿中心(莊敬)	1104900100	25.031399	121.561326	7	世貿中心(莊敬)	1104900100	25.031399	121.561326		
8	捷運東門站	1064100120	25.034134	121.5269937	8	捷運東門站	1064100120	25.034134	121.5269937		
8	信義光復路口	1105200260	25.0331	121.55813	8	信義光復路口	1105200260	25.0331	121.55813		
9	信義通化街口	1067900460	25.033193	121.5546221	9	信義通化街口	1067900460	25.033193	121.5546221		
9	信義永康街口(捷運東門站)	1065000320	25.033693	121.529727	9	信義永康街口(捷運東門站)	1065000320	25.033693	121.529727		
											
26	100002600										
1	社子國小二	1117200540	25.090017	121.5020824	1	社子國小二	1117200540	25.090017	121.5020824		
1	南京吉林路口	1045700260	25.052112	121.5303325	1	南京吉林路口	1045700260	25.052112	121.5303325		
10	庫倫街口	1036700400	25.072586	121.5190411	10	庫倫街口	1036700400	25.072586	121.5190411		
10	圓山皇宮大廈	1116600140	25.083468	121.5233264	10	圓山皇宮大廈	1116600140	25.083468	121.5233264		
11	明倫高中	1036800000	25.074249	121.5199745	11	明倫高中	1036800000	25.074249	121.5199745		
11	劍潭國小	1116600240	25.081056	121.5223096	11	劍潭國小	1116600240	25.081056	121.5223096		
12	劍潭國小	1116700200	25.081066	121.5227513	12	劍潭國小	1116700200	25.081066	121.5227513		
12	明倫高中	1036700240	25.07344	121.5191524	12	明倫高中	1036700240	25.07344	121.5191524		
13	圓山皇宮大廈	1116600100	25.083356	121.523596	13	圓山皇宮大廈	1116600100	25.083356	121.523596		
13	庫倫街口	1036600040	25.071066	121.5183341	13	庫倫街口	1036600040	25.071066	121.5183341		
14	大南路口	1116700000	25.0879	121.52225	14	大南路口	1116700000	25.0879	121.52225		
14	民族承德路口	1036500040	25.067913	121.5182673	14	民族承德路口	1036500040	25.067913	121.5182673		
15	大同國小	1036300040	25.064874	121.5181	15	大同國小	1036300040	25.064874	121.5181		
15	士商路	1116800100	25.091	121.51989	15	士商路	1116800100	25.091	121.51989		
16	陽明高中	1116500860	25.092141	121.517889	16	陽明高中	1116500860	25.092141	121.517889		
16	民權中山路口	1045200220	25.062714	121.5223009	16	民權中山路口	1045200220	25.062714	121.5223009		
17	社子市場	1117200100	25.087505	121.5090743	17	社子市場	1117200100	25.087505	121.5090743		
17	捷運中山國小站	1045100020	25.062668	121.5253813	17	捷運中山國小站	1045100020	25.062668	121.5253813		
18	民權吉林路口	1046800020	25.062546	121.5300637	18	民權吉林路口	1046800020	25.062546	121.5300637		
18	社園里	1117200600	25.089056	121.5079873	18	社園里	1117200600	25.089056	121.5079873		
19	捷運行天宮站(松江路)	1046800240	25.060535	121.5331063	19	捷運行天宮站(松江路)	1046800240	25.060535	121.5331063		
19	社子派出所	1117200360	25.089599	121.5064251	19	社子派出所	1117200360	25.089599	121.5064251		
2	社子國小	1117200440	25.089646	121.5028759	2	社子國小	1117200440	25.089646	121.5028759		
2	南京林森路口	1045400160	25.052167	121.5257174	2	南京林森路口	1045400160	25.052167	121.5257174		
20	長春松江路口	1048500040	25.055006	121.533011	20	長春松江路口	1048500040	25.055006	121.533011		
20	永倫里(南)	1117200760	25.089467	121.503968	20	永倫里(南)	1117200760	25.089467	121.503968		
21	社子國小	1117200400	25.089904	121.5025776	21	社子國小	1117200400	25.089904	121.5025776		
22	永倫里(延平)	1117500100	25.091148	121.500682	22	永倫里(延平)	1117500100	25.091148	121.500682		
3	捷運中山站(志仁高中)	1035200160	25.052867	121.519866	3	捷運中山站(志仁高中)	1035200160	25.052867	121.519866		
3	永倫里(南)	1117200720	25.089298	121.504244	3	永倫里(南)	1117200720	25.089298	121.504244		
4	建成公園	1035300200	25.05462	121.51825	4	建成公園	1035300200	25.05462	121.51825		
4	社子派出所	1117200320	25.089332	121.5056145	4	社子派出所	1117200320	25.089332	121.5056145		
5	民生西路口	1035300100	25.05801	121.51829	5	民生西路口	1035300100	25.05801	121.51829		
5	社子市場二	1117200240	25.088796	121.5081045	5	社子市場二	1117200240	25.088796	121.5081045		
6	成淵高中	1035400100	25.060893	121.5184069	6	成淵高中	1035400100	25.060893	121.5184069		
6	社子市場	1117200140	25.088046	121.5087166	6	社子市場	1117200140	25.088046	121.5087166		
7	防癆協會	1036400200	25.06357	121.51846	7	防癆協會	1036400200	25.06357	121.51846		
7	福港街	1116800241	25.089884	121.517833	7	福港街	1116800241	25.089884	121.517833		
8	承德路四段	1116800340	25.089268	121.5204586	8	承德路四段	1116800340	25.089268	121.5204586		
8	大同國小	1035300000	25.066329	121.5185171	8	大同國小	1035300000	25.066329	121.5185171		
9	民族承德路口	1036500000	25.06894	121.5185487	9	民族承德路口	1036500000	25.06894	121.5185487		
9	大南路口	1116700040	25.088519	121.5215607	9	大南路口	1116700040	25.088519	121.5215607		
											
28	100002800										
1	明水路一	1046600140	25.083327	121.550812	1	明水路一	1046600140	25.083327	121.550812		
1	捷運台北101/世貿站(市府)	1100100100	25.034512	121.5635759	1	捷運台北101/世貿站(市府)	1100100100	25.034512	121.5635759		
10	南港路三段	1156300320	25.052936	121.5872289	10	南港路三段	1156300320	25.052936	121.5872289		
10	捷運劍南路站	1046400320	25.08484	121.555253	10	捷運劍南路站	1046400320	25.08484	121.555253		
11	美麗華	1144600120	25.084538	121.5581969	11	美麗華	1144600120	25.084538	121.5581969		
11	西新里(新新公園)	1156300020	25.053286	121.5896618	11	西新里(新新公園)	1156300020	25.053286	121.5896618		
12	玉成國小	1156300120	25.054083	121.5921075	12	玉成國小	1156300120	25.054083	121.5921075		
12	文湖國小	1144600020	25.084151	121.5615165	12	文湖國小	1144600020	25.084151	121.5615165		
13	南港分局(向陽)	1155100300	25.055334	121.5944152	13	南港分局(向陽)	1155100300	25.055334	121.5944152		
13	治磐新村	1149300020	25.082945	121.5638416	13	治磐新村	1149300020	25.082945	121.5638416		
14	捷運西湖站	1149300220	25.082197	121.5658848	14	捷運西湖站	1149300220	25.082197	121.5658848		
14	石潭公園(成功)	1147000400	25.061289	121.591281	14	石潭公園(成功)	1147000400	25.061289	121.591281		
15	恕德家商	1149300120	25.081963	121.5690454	15	恕德家商	1149300120	25.081963	121.5690454		
15	上灣仔	1146700000	25.066818	121.5907148	15	上灣仔	1146700000	25.066818	121.5907148		
16	麗山街	1144400420	25.081132	121.57184	16	麗山街	1144400420	25.081132	121.57184		
16	湖興	1146700100	25.067861	121.5908537	16	湖興	1146700100	25.067861	121.5908537		
17	國防醫學中心	1147200100	25.07121	121.5900311	17	國防醫學中心	1147200100	25.07121	121.5900311		
17	捷運港墘站(內湖高工)	1144400220	25.080149	121.5746181	17	捷運港墘站(內湖高工)	1144400220	25.080149	121.5746181		
18	三總內湖站	1149000200	25.071852	121.592095	18	三總內湖站	1149000200	25.071852	121.592095		
18	西湖圖書館(湖光教會)	1144700021	25.078956	121.57768	18	西湖圖書館(湖光教會)	1144700021	25.078956	121.57768		
19	將軍嶺	1147200200	25.073809	121.5900167	19	將軍嶺	1147200200	25.073809	121.5900167		
19	內湖國小	1146400020	25.07929	121.5812755	19	內湖國小	1146400020	25.07929	121.5812755		
2	市政府(市府)	1100800100	25.038366	121.5636251	2	市政府(市府)	1100800100	25.038366	121.5636251		
2	明水路二	1046600240	25.07972	121.55214	2	明水路二	1046600240	25.07972	121.55214		
20	方濟中學	1146200000	25.076884	121.5902313	20	方濟中學	1146200000	25.076884	121.5902313		
20	達人高中(臺灣戲曲學院)	1146400620	25.08114	121.5868	20	達人高中(臺灣戲曲學院)	1146400620	25.08114	121.5868		
21	內湖派出所	1144900020	25.081788	121.5894925	21	內湖派出所	1144900020	25.081788	121.5894925		
21	成功路三段	1146000200	25.079617	121.5899398	21	成功路三段	1146000200	25.079617	121.5899398		
22	成功路三段	1146000260	25.079854	121.589838	22	成功路三段	1146000260	25.079854	121.589838		
22	內湖派出所	1147200060	25.081987	121.590028	22	內湖派出所	1147200060	25.081987	121.590028		
23	方濟中學	1146000140	25.076435	121.5900771	23	方濟中學	1146000140	25.076435	121.5900771		
23	達人高中(臺灣戲曲學院)	1146400660	25.08132	121.58718	23	達人高中(臺灣戲曲學院)	1146400660	25.08132	121.58718		
24	將軍嶺	1147200240	25.073372	121.58972	24	將軍嶺	1147200240	25.073372	121.58972		
24	內湖國小	1146400060	25.079397	121.581399	24	內湖國小	1146400060	25.079397	121.581399		
25	三總內湖站	1149000100	25.071852	121.592095	25	三總內湖站	1149000100	25.071852	121.592095		
25	西湖圖書館(湖光教會)	1144700060	25.079106	121.5779835	25	西湖圖書館(湖光教會)	1144700060	25.079106	121.5779835		
26	國防醫學中心	1147200140	25.071037	121.5898699	26	國防醫學中心	1147200140	25.071037	121.5898699		
26	捷運港墘站(內湖高工)	1144400260	25.079836	121.5761086	26	捷運港墘站(內湖高工)	1144400260	25.079836	121.5761086		
27	麗山國中	1144400360	25.080638	121.5738603	27	麗山國中	1144400360	25.080638	121.5738603		
27	湖興	1146700140	25.06803	121.5906611	27	湖興	1146700140	25.06803	121.5906611		
28	麗山街	1144400460	25.081473	121.571386	28	麗山街	1144400460	25.081473	121.571386		
28	上灣仔	1146700040	25.067	121.5905214	28	上灣仔	1146700040	25.067	121.5905214		
29	石潭公園(成功)	1146700240	25.061041	121.591015	29	石潭公園(成功)	1146700240	25.061041	121.591015		
29	恕德家商	1144400060	25.082118	121.5694613	29	恕德家商	1144400060	25.082118	121.5694613		
3	明水路三	1046200760	25.07742	121.54947	3	明水路三	1046200760	25.07742	121.54947		
3	松山高中(基隆路)	1107000300	25.044234	121.5664817	3	松山高中(基隆路)	1107000300	25.044234	121.5664817		
30	南港分局(向陽)	1155100340	25.055748	121.5937887	30	南港分局(向陽)	1155100340	25.055748	121.5937887		
30	捷運西湖站	1144400160	25.082421	121.5658681	30	捷運西湖站	1144400160	25.082421	121.5658681		
31	治磐新村	1144200160	25.083069	121.5640985	31	治磐新村	1144200160	25.083069	121.5640985		
31	玉成國小	1157000060	25.054384	121.5928002	31	玉成國小	1157000060	25.054384	121.5928002		
32	文湖國小	1144600060	25.084381	121.5615357	32	文湖國小	1144600060	25.084381	121.5615357		
32	西新里(新新公園)	1155400060	25.053503	121.5899925	32	西新里(新新公園)	1155400060	25.053503	121.5899925		
33	美麗華	1046400260	25.084817	121.5581193	33	美麗華	1046400260	25.084817	121.5581193		
33	南港路三段	1155400260	25.053048	121.5877474	33	南港路三段	1155400260	25.053048	121.5877474		
34	松山磚廠	1155400160	25.05265	121.5850508	34	松山磚廠	1155400160	25.05265	121.5850508		
34	捷運劍南路站	1046400360	25.085271	121.5546799	34	捷運劍南路站	1046400360	25.085271	121.5546799		
35	明水路一	1046600140	25.083327	121.550812	35	明水路一	1046600140	25.083327	121.550812		
35	玉成里	1157700060	25.050922	121.5809118	35	玉成里	1157700060	25.050922	121.5809118		
36	明水路二	1046600240	25.07972	121.55214	36	明水路二	1046600240	25.07972	121.55214		
36	松山車站(八德)	1056700062	25.050168	121.576598	36	松山車站(八德)	1056700062	25.050168	121.576598		
37	松山農會	1056600060	25.050073	121.574914	37	松山農會	1056600060	25.050073	121.574914		
37	明水路三	1046200760	25.07742	121.54947	37	明水路三	1046200760	25.07742	121.54947		
38	饒河街觀光夜市(八德)	1056600460	25.05	121.5716	38	饒河街觀光夜市(八德)	1056600460	25.05	121.5716		
38	大直抽水站	1046500060	25.07757	121.54534	38	大直抽水站	1046500060	25.07757	121.54534		
39	基隆路口二	1106900140	25.047993	121.5682545	39	基隆路口二	1106900140	25.047993	121.5682545		
39	永安里	1046500420	25.078877	121.546182	39	永安里	1046500420	25.078877	121.546182		
4	基隆路口	1106900000	25.04831	121.568923	4	基隆路口	1106900000	25.04831	121.568923		
4	大直抽水站	1046500060	25.07757	121.54534	4	大直抽水站	1046500060	25.07757	121.54534		
40	松山高中(基隆路)	1107000340	25.044449	121.5662804	40	松山高中(基隆路)	1107000340	25.044449	121.5662804		
40	捷運大直站	1046500520	25.080216	121.5479855	40	捷運大直站	1046500520	25.080216	121.5479855		
41	植福宮	1046300000	25.081609	121.5488002	41	植福宮	1046300000	25.081609	121.5488002		
41	市政府(松高)	1107300220	25.03902	121.56453	41	市政府(松高)	1107300220	25.03902	121.56453		
42	自強隧道(大直教會)	1046400100	25.083737	121.5493072	42	自強隧道(大直教會)	1046400100	25.083737	121.5493072		
42	市政府(松智)	1104700340	25.036834	121.5653434	42	市政府(松智)	1104700340	25.036834	121.5653434		
43	101國際購物中心	1100100040	25.034261	121.565358	43	101國際購物中心	1100100040	25.034261	121.565358		
44	捷運台北101/世貿站(信義)	1104900360	25.033242	121.5645984	44	捷運台北101/世貿站(信義)	1104900360	25.033242	121.5645984		
5	饒河街觀光夜市(八德)	1056600420	25.049815	121.5714654	5	饒河街觀光夜市(八德)	1056600420	25.049815	121.5714654		
5	永安里	1046500420	25.078877	121.546182	5	永安里	1046500420	25.078877	121.546182		
6	松山農會	1056600020	25.049902	121.5738483	6	松山農會	1056600020	25.049902	121.5738483		
6	捷運大直站	1046500520	25.080216	121.5479855	6	捷運大直站	1046500520	25.080216	121.5479855		
7	松山車站(八德)	1056700020	25.049975	121.5772464	7	松山車站(八德)	1056700020	25.049975	121.5772464		
7	植福宮	1046300000	25.081609	121.5488002	7	植福宮	1046300000	25.081609	121.5488002		
8	玉成里	1157700020	25.050867	121.5809831	8	玉成里	1157700020	25.050867	121.5809831		
8	自強隧道(大直教會)	1046400100	25.083737	121.5493072	8	自強隧道(大直教會)	1046400100	25.083737	121.5493072		
9	自強隧道	1046400020	25.085862	121.5518959	9	自強隧道	1046400020	25.085862	121.5518959		
9	松山磚廠	1156300220	25.052203	121.5842017	9	松山磚廠	1156300220	25.052203	121.5842017		
											
32	100003200										
1	吳興街站	1104600100	25.02324	121.56976	1	吳興街站	1104600100	25.02324	121.56976		
1	南港公園一	1156900100	25.043971	121.5929045	1	南港公園一	1156900100	25.043971	121.5929045		
10	永吉松山路口	1108900040	25.044863	121.5776905	10	永吉松山路口	1108900040	25.044863	121.5776905		
10	捷運永春站(忠孝)	1106100220	25.040733	121.575809	10	捷運永春站(忠孝)	1106100220	25.040733	121.575809		
11	捷運永春站(松山)	1106100140	25.041936	121.577654	11	捷運永春站(松山)	1106100140	25.041936	121.577654		
11	捷運永春站(松山)	1106100100	25.04195	121.5778998	11	捷運永春站(松山)	1106100100	25.04195	121.5778998		
12	捷運永春站(忠孝)	1106100260	25.040967	121.575743	12	捷運永春站(忠孝)	1106100260	25.040967	121.575743		
12	雙永國小	1106200000	25.043558	121.5779186	12	雙永國小	1106200000	25.043558	121.5779186		
13	永吉松山路口	1106200100	25.045005	121.5779069	13	永吉松山路口	1106200100	25.045005	121.5779069		
13	市立工農	1106600060	25.041089	121.5724391	13	市立工農	1106600060	25.041089	121.5724391		
14	松山車站(松山)	1109000000	25.047269	121.5779129	14	松山車站(松山)	1109000000	25.047269	121.5779129		
14	消防局(松仁)	1107300441	25.038604	121.568284	14	消防局(松仁)	1107300441	25.038604	121.568284		
15	興雅國中	1107300740	25.037232	121.5682685	15	興雅國中	1107300740	25.037232	121.5682685		
15	松山車站	1056700120	25.049806	121.578206	15	松山車站	1056700120	25.049806	121.578206		
16	五分埔商圈(中坡北)	1156200040	25.04799	121.58003	16	五分埔商圈(中坡北)	1156200040	25.04799	121.58003		
16	信義松仁路口(松仁)	1105800440	25.034535	121.568236	16	信義松仁路口(松仁)	1105800440	25.034535	121.568236		
17	捷運後山埤站(永吉)	1156200320	25.045234	121.5819452	17	捷運後山埤站(永吉)	1156200320	25.045234	121.5819452		
17	松平路口	1104600340	25.030795	121.568193	17	松平路口	1104600340	25.030795	121.568193		
18	捷運後山埤站(玉成)	1156200220	25.045088	121.5829419	18	捷運後山埤站(玉成)	1156200220	25.045088	121.5829419		
18	信義國中(松仁)	1105900040	25.02881	121.568164	18	信義國中(松仁)	1105900040	25.02881	121.568164		
19	聯合醫院忠孝院區(同德)	1155600220	25.046173	121.5864802	19	聯合醫院忠孝院區(同德)	1155600220	25.046173	121.5864802		
19	吳興國小(松仁)	1104600040	25.026231	121.568554	19	吳興國小(松仁)	1104600040	25.026231	121.568554		
2	南港公園	1156900060	25.04584	121.59264	2	南港公園	1156900060	25.04584	121.59264		
2	松仁路	1104600200	25.02453	121.5695997	2	松仁路	1104600200	25.02453	121.5695997		
20	修德國小	1155600020	25.046351	121.5902235	20	修德國小	1155600020	25.046351	121.5902235		
20	松仁路	1104600240	25.024432	121.569585	20	松仁路	1104600240	25.024432	121.569585		
21	吳興街站	1104600100	25.02324	121.56976	21	吳興街站	1104600100	25.02324	121.56976		
21	南港公園	1156900020	25.045951	121.5921143	21	南港公園	1156900020	25.045951	121.5921143		
22	南港公園一	1156900140	25.043925	121.5927772	22	南港公園一	1156900140	25.043925	121.5927772		
23	南港花園社區四	1156900340	25.039482	121.593565	23	南港花園社區四	1156900340	25.039482	121.593565		
24	南港花園社區三	1156900260	25.038953	121.5926327	24	南港花園社區三	1156900260	25.038953	121.5926327		
25	南港花園社區二	1158200100	25.040031	121.5911518	25	南港花園社區二	1158200100	25.040031	121.5911518		
26	南港花園社區一	1158200040	25.041068	121.591596	26	南港花園社區一	1158200040	25.041068	121.591596		
27	南港花園社區五	1158200320	25.04004	121.5926	27	南港花園社區五	1158200320	25.04004	121.5926		
3	吳興國小(松仁)	1104600000	25.026234	121.568628	3	吳興國小(松仁)	1104600000	25.026234	121.568628		
3	修德國小	1155600060	25.046622	121.5894869	3	修德國小	1155600060	25.046622	121.5894869		
4	信義國中(松仁)	1105900000	25.02881	121.568464	4	信義國中(松仁)	1105900000	25.02881	121.568464		
4	聯合醫院忠孝院區(同德)	1155900360	25.046237	121.5862517	4	聯合醫院忠孝院區(同德)	1155900360	25.046237	121.5862517		
5	松平路口	1105800300	25.03124	121.56839	5	松平路口	1105800300	25.03124	121.56839		
5	捷運後山埤站(玉成)	1156200260	25.04521	121.5829604	5	捷運後山埤站(玉成)	1156200260	25.04521	121.5829604		
6	信義松仁路口(松仁)	1105800400	25.03369	121.5684464	6	信義松仁路口(松仁)	1105800400	25.03369	121.5684464		
6	捷運後山埤站(永吉)	1156200360	25.045397	121.581802	6	捷運後山埤站(永吉)	1156200360	25.045397	121.581802		
7	興雅國中	1107300700	25.03724	121.568534	7	興雅國中	1107300700	25.03724	121.568534		
7	五分埔商圈(中坡北)	1156200000	25.047232	121.58077	7	五分埔商圈(中坡北)	1156200000	25.047232	121.58077		
8	消防局(松仁)	1107300400	25.039991	121.568621	8	消防局(松仁)	1107300400	25.039991	121.568621		
8	松山車站(松隆)	1108700060	25.048183	121.5789197	8	松山車站(松隆)	1108700060	25.048183	121.5789197		
9	松山車站(松山)	1109000040	25.047159	121.577685	9	松山車站(松山)	1109000040	25.047159	121.577685		
9	市立工農	1106000020	25.040854	121.5726502	9	市立工農	1106000020	25.040854	121.5726502		
											
33	100003300										
1	永春高中	1108000000	25.033446	121.5797804	1	永春高中	1108000000	25.033446	121.5797804		
1	敬業四路	1046201940	25.081855	121.5584464	1	敬業四路	1046201940	25.081855	121.5584464		
10	民權敦化路口	1054100020	25.06202	121.5476253	10	民權敦化路口	1054100020	25.06202	121.5476253		
10	松山商職(福德)	1107700560	25.036372	121.5787375	10	松山商職(福德)	1107700560	25.036372	121.5787375		
11	國業里	1107800360	25.03555	121.57704	11	國業里	1107800360	25.03555	121.57704		
11	民權東路口	1054200120	25.061587	121.5496186	11	民權東路口	1054200120	25.061587	121.5496186		
12	民生敦化路口	1054600040	25.057956	121.548902	12	民生敦化路口	1054600040	25.057956	121.548902		
12	國稅局宿舍	1108500060	25.034442	121.575497	12	國稅局宿舍	1108500060	25.034442	121.575497		
13	松平路口	1104600340	25.030795	121.568193	13	松平路口	1104600340	25.030795	121.568193		
13	長春敦化路口	1054800440	25.05458	121.54883	13	長春敦化路口	1054800440	25.05458	121.54883		
14	信義國中(松仁)	1105900040	25.02881	121.568164	14	信義國中(松仁)	1105900040	25.02881	121.568164		
14	臺北小巨蛋	1059500040	25.052139	121.548768	14	臺北小巨蛋	1059500040	25.052139	121.548768		
15	八德敦化路口	1055100040	25.04864	121.54874	15	八德敦化路口	1055100040	25.04864	121.54874		
15	吳興國小(莊敬)	1105800260	25.026855	121.5680489	15	吳興國小(莊敬)	1105800260	25.026855	121.5680489		
16	市民敦化路口	1055700240	25.045271	121.548797	16	市民敦化路口	1055700240	25.045271	121.548797		
16	信義國中(莊敬)	1105000200	25.027607	121.56521	16	信義國中(莊敬)	1105000200	25.027607	121.56521		
17	臺北醫學大學	1105000300	25.028241	121.5634888	17	臺北醫學大學	1105000300	25.028241	121.5634888		
17	忠孝敦化路口	1069000140	25.041865	121.5487541	17	忠孝敦化路口	1069000140	25.041865	121.5487541		
18	景新里	1104900400	25.029526	121.5623852	18	景新里	1104900400	25.029526	121.5623852		
18	仁愛敦化路口	1068500140	25.039043	121.548697	18	仁愛敦化路口	1068500140	25.039043	121.548697		
19	信義敦化路口	1068100140	25.033775	121.548726	19	信義敦化路口	1068100140	25.033775	121.548726		
19	世貿中心(莊敬)	1104900100	25.031399	121.561326	19	世貿中心(莊敬)	1104900100	25.031399	121.561326		
2	松山商職(松山)	1107600100	25.036029	121.578609	2	松山商職(松山)	1107600100	25.036029	121.578609		
2	大直美堤花園二	1046600660	25.08002	121.5574829	2	大直美堤花園二	1046600660	25.08002	121.5574829		
20	信義光復路口	1105200260	25.0331	121.55813	20	信義光復路口	1105200260	25.0331	121.55813		
20	捷運信義安和站(信義)	1068500320	25.033142	121.551229	20	捷運信義安和站(信義)	1068500320	25.033142	121.551229		
21	信義通化街口	1067900460	25.033193	121.5546221	21	信義通化街口	1067900460	25.033193	121.5546221		
21	信義通化街口	1067900420	25.033087	121.5539941	21	信義通化街口	1067900420	25.033087	121.5539941		
22	捷運信義安和站(信義)	1068500360	25.033223	121.552849	22	捷運信義安和站(信義)	1068500360	25.033223	121.552849		
22	信義光復路口	1067900320	25.03311	121.55687	22	信義光復路口	1067900320	25.03311	121.55687		
23	信義敦化路口	1068500260	25.033377	121.549449	23	信義敦化路口	1068500260	25.033377	121.549449		
23	世貿中心(莊敬)	1104900140	25.031446	121.56127	23	世貿中心(莊敬)	1104900140	25.031446	121.56127		
24	仁愛國中	1068900100	25.035951	121.5490897	24	仁愛國中	1068900100	25.035951	121.5490897		
24	景新里	1104900440	25.02923	121.5624103	24	景新里	1104900440	25.02923	121.5624103		
25	臺北醫學大學	1105000340	25.028273	121.5632643	25	臺北醫學大學	1105000340	25.028273	121.5632643		
25	安和敦化路口	1068900400	25.039761	121.5489579	25	安和敦化路口	1068900400	25.039761	121.5489579		
26	捷運忠孝敦化站	1069000200	25.043012	121.549174	26	捷運忠孝敦化站	1069000200	25.043012	121.549174		
26	信義國中(莊敬)	1105000240	25.027402	121.565724	26	信義國中(莊敬)	1105000240	25.027402	121.565724		
27	市民大道口	1055700000	25.045757	121.5491941	27	市民大道口	1055700000	25.045757	121.5491941		
27	吳興國小(松仁)	1104600001	25.027082	121.568415	27	吳興國小(松仁)	1104600001	25.027082	121.568415		
28	市立體育場	1054900200	25.048949	121.549204	28	市立體育場	1054900200	25.048949	121.549204		
28	信義國中(松仁)	1105900000	25.02881	121.568464	28	信義國中(松仁)	1105900000	25.02881	121.568464		
29	臺北小巨蛋	1055000000	25.05258	121.54933	29	臺北小巨蛋	1055000000	25.05258	121.54933		
29	松平路口	1105800300	25.03124	121.56839	29	松平路口	1105800300	25.03124	121.56839		
3	永春公寓	1107600000	25.040006	121.5779488	3	永春公寓	1107600000	25.040006	121.5779488		
3	大直美堤花園三	1046201360	25.080032	121.5556576	3	大直美堤花園三	1046201360	25.080032	121.5556576		
30	長庚醫院	1050800000	25.05656	121.54929	30	長庚醫院	1050800000	25.05656	121.54929		
30	捷運象山站	1104700720	25.032648	121.568984	30	捷運象山站	1104700720	25.032648	121.568984		
31	國稅局宿舍	1108500020	25.03433	121.575678	31	國稅局宿舍	1108500020	25.03433	121.575678		
31	富錦街口	1057200100	25.0596	121.55006	31	富錦街口	1057200100	25.0596	121.55006		
32	松山商職(信義)	1108600020	25.035968	121.5777733	32	松山商職(信義)	1108600020	25.035968	121.5777733		
32	民權敦化路口	1054100060	25.062035	121.5482873	32	民權敦化路口	1054100060	25.062035	121.5482873		
33	松山商職(福德)	1107700520	25.036219	121.5787474	33	松山商職(福德)	1107700520	25.036219	121.5787474		
33	五常街口	1047600200	25.064149	121.5444202	33	五常街口	1047600200	25.064149	121.5444202		
34	大直國小	1046500220	25.079711	121.5453154	34	大直國小	1046500220	25.079711	121.5453154		
34	松友新村	1107700620	25.036858	121.581141	34	松友新村	1107700620	25.036858	121.581141		
35	信義行政中心(奉天宮)	1107800120	25.037669	121.5832737	35	信義行政中心(奉天宮)	1107800120	25.037669	121.5832737		
35	捷運大直站	1046500520	25.080216	121.5479855	35	捷運大直站	1046500520	25.080216	121.5479855		
36	植福宮	1046300000	25.081609	121.5488002	36	植福宮	1046300000	25.081609	121.5488002		
36	大道路	1107700000	25.040321	121.5827027	36	大道路	1107700000	25.040321	121.5827027		
37	自強隧道(大直教會)	1046400100	25.083737	121.5493072	37	自強隧道(大直教會)	1046400100	25.083737	121.5493072		
37	忠孝大道路口	1107700400	25.042496	121.5815915	37	忠孝大道路口	1107700400	25.042496	121.5815915		
38	春光公園	1106200260	25.042632	121.580447	38	春光公園	1106200260	25.042632	121.580447		
38	自強隧道	1046400020	25.085862	121.5518959	38	自強隧道	1046400020	25.085862	121.5518959		
39	捷運劍南路站	1046400320	25.08484	121.555253	39	捷運劍南路站	1046400320	25.08484	121.555253		
39	永春公寓	1107600040	25.039975	121.5777181	39	永春公寓	1107600040	25.039975	121.5777181		
4	明水路口	1046200860	25.08014	121.55263	4	明水路口	1046200860	25.08014	121.55263		
4	永春里(忠孝)	1107700120	25.041101	121.5785081	4	永春里(忠孝)	1107700120	25.041101	121.5785081		
40	美麗華	1144600120	25.084538	121.5581969	40	美麗華	1144600120	25.084538	121.5581969		
40	松山商職(松山)	1107600140	25.036576	121.5783351	40	松山商職(松山)	1107600140	25.036576	121.5783351		
41	永春高中	1108000040	25.033484	121.5796725	41	永春高中	1108000040	25.033484	121.5796725		
5	明水路一	1046600100	25.082292	121.551413	5	明水路一	1046600100	25.082292	121.551413		
5	春光公園	1106200220	25.042737	121.580888	5	春光公園	1106200220	25.042737	121.580888		
6	忠孝大道路口	1107700440	25.042363	121.581579	6	忠孝大道路口	1107700440	25.042363	121.581579		
6	自強隧道	1046400040	25.083774	121.5490281	6	自強隧道	1046400040	25.083774	121.5490281		
7	大道路	1107700040	25.040157	121.5827287	7	大道路	1107700040	25.040157	121.5827287		
7	植福宮	1046300040	25.080848	121.5482394	7	植福宮	1046300040	25.080848	121.5482394		
8	信義行政中心(奉天宮)	1107800160	25.03789	121.58325	8	信義行政中心(奉天宮)	1107800160	25.03789	121.58325		
8	捷運大直站	1046500560	25.079923	121.5461397	8	捷運大直站	1046500560	25.079923	121.5461397		
9	松友新村	1107700660	25.037055	121.580964	9	松友新村	1107700660	25.037055	121.580964		
9	復興北村	1047600640	25.064978	121.5441547	9	復興北村	1047600640	25.064978	121.5441547		
											
37	100003700										
1	吳興街站	1104600100	25.02324	121.56976	1	吳興街站	1104600100	25.02324	121.56976		
1	臺北車站(青島)	1004100820	25.044844	121.517704	1	臺北車站(青島)	1004100820	25.044844	121.517704		
10	仁愛建國路口二	1065600020	25.037966	121.5406655	10	仁愛建國路口二	1065600020	25.037966	121.5406655		
10	國父紀念館	1107300560	25.037685	121.5609264	10	國父紀念館	1107300560	25.037685	121.5609264		
11	仁愛光復路口	1107300060	25.0377	121.55781	11	仁愛光復路口	1107300060	25.0377	121.55781		
11	仁愛復興路口(福華飯店)	1068500020	25.037854	121.543165	11	仁愛復興路口(福華飯店)	1068500020	25.037854	121.543165		
12	仁愛大安路口(仁愛醫院)	1069100020	25.03784	121.545738	12	仁愛大安路口(仁愛醫院)	1069100020	25.03784	121.545738		
12	仁愛延吉街口	1069600060	25.037774	121.5557793	12	仁愛延吉街口	1069600060	25.037774	121.5557793		
13	仁愛敦化路口(圓環)	1068800120	25.037783	121.5476903	13	仁愛敦化路口(圓環)	1068800120	25.037783	121.5476903		
13	仁愛國泰醫院	1068700360	25.037828	121.5532159	13	仁愛國泰醫院	1068700360	25.037828	121.5532159		
14	仁愛安和路口	1068800020	25.037721	121.5508833	14	仁愛安和路口	1068800020	25.037721	121.5508833		
14	仁愛安和路口	1068800060	25.037852	121.5516958	14	仁愛安和路口	1068800060	25.037852	121.5516958		
15	仁愛國小	1068700140	25.036502	121.5520521	15	仁愛國小	1068700140	25.036502	121.5520521		
15	仁愛敦化路口(圓環)	1068800160	25.038013	121.5472892	15	仁愛敦化路口(圓環)	1068800160	25.038013	121.5472892		
16	捷運信義安和站(安和)	1068000240	25.034385	121.552398	16	捷運信義安和站(安和)	1068000240	25.034385	121.552398		
16	仁愛復興路口(福華飯店)	1068500060	25.03806	121.544071	16	仁愛復興路口(福華飯店)	1068500060	25.03806	121.544071		
17	信義通化街口	1067900420	25.033087	121.5539941	17	信義通化街口	1067900420	25.033087	121.5539941		
17	仁愛建國路口一	1065700060	25.038167	121.5394276	17	仁愛建國路口一	1065700060	25.038167	121.5394276		
18	幸安國小	1065100160	25.038238	121.5343376	18	幸安國小	1065100160	25.038238	121.5343376		
18	信義光復路口	1067900320	25.03311	121.55687	18	信義光復路口	1067900320	25.03311	121.55687		
19	世貿中心(莊敬)	1104900140	25.031446	121.56127	19	世貿中心(莊敬)	1104900140	25.031446	121.56127		
19	仁愛新生路口	1065100060	25.038245	121.5331329	19	仁愛新生路口	1065100060	25.038245	121.5331329		
2	松仁路	1104600200	25.02453	121.5695997	2	松仁路	1104600200	25.02453	121.5695997		
2	臺大醫院	1005500340	25.042497	121.5185042	2	臺大醫院	1005500340	25.042497	121.5185042		
20	仁愛臨沂街口	1006000260	25.03834	121.52952	20	仁愛臨沂街口	1006000260	25.03834	121.52952		
20	景新里	1104900440	25.02923	121.5624103	20	景新里	1104900440	25.02923	121.5624103		
21	仁愛杭州路口	1005500060	25.038352	121.5254546	21	仁愛杭州路口	1005500060	25.038352	121.5254546		
21	臺北醫學大學	1105000340	25.028273	121.5632643	21	臺北醫學大學	1105000340	25.028273	121.5632643		
22	仁愛林森路口	1005200160	25.038912	121.5211551	22	仁愛林森路口	1005200160	25.038912	121.5211551		
22	信義國中(莊敬)	1105000240	25.027402	121.565724	22	信義國中(莊敬)	1105000240	25.027402	121.565724		
23	仁愛中山路口	1005100060	25.039261	121.5183669	23	仁愛中山路口	1005100060	25.039261	121.5183669		
23	吳興國小(莊敬)	1105000020	25.026725	121.568122	23	吳興國小(莊敬)	1105000020	25.026725	121.568122		
24	捷運台大醫院站	1004801100	25.041927	121.5163535	24	捷運台大醫院站	1004801100	25.041927	121.5163535		
24	松仁路	1104600240	25.024432	121.569585	24	松仁路	1104600240	25.024432	121.569585		
25	吳興街站	1104600100	25.02324	121.56976	25	吳興街站	1104600100	25.02324	121.56976		
3	仁愛中山路口	1005100020	25.039129	121.5184523	3	仁愛中山路口	1005100020	25.039129	121.5184523		
3	吳興國小(松仁)	1104600000	25.026234	121.568628	3	吳興國小(松仁)	1104600000	25.026234	121.568628		
4	仁愛林森路口	1005200120	25.038769	121.5213453	4	仁愛林森路口	1005200120	25.038769	121.5213453		
4	信義國中(莊敬)	1105000200	25.027607	121.56521	4	信義國中(莊敬)	1105000200	25.027607	121.56521		
5	仁愛紹興街口	1005200220	25.038452	121.5235878	5	仁愛紹興街口	1005200220	25.038452	121.5235878		
5	臺北醫學大學	1105000300	25.028241	121.5634888	5	臺北醫學大學	1105000300	25.028241	121.5634888		
6	仁愛臨沂街口	1006000220	25.038218	121.5280453	6	仁愛臨沂街口	1006000220	25.038218	121.5280453		
6	景新里	1104900400	25.029526	121.5623852	6	景新里	1104900400	25.029526	121.5623852		
7	仁愛新生路口	1006200120	25.038163	121.5324028	7	仁愛新生路口	1006200120	25.038163	121.5324028		
7	世貿中心(莊敬)	1104900100	25.031399	121.561326	7	世貿中心(莊敬)	1104900100	25.031399	121.561326		
8	幸安國小	1065100120	25.038044	121.5343357	8	幸安國小	1065100120	25.038044	121.5343357		
8	世貿中心(基隆路)	1105100100	25.033677	121.5601565	8	世貿中心(基隆路)	1105100100	25.033677	121.5601565		
9	市議會	1107300300	25.037028	121.5620977	9	市議會	1107300300	25.037028	121.5620977		
9	仁愛建國路口一	1065300020	25.038031	121.5370721	9	仁愛建國路口一	1065300020	25.038031	121.5370721		
											
38	100003800										
1	榮德里	1087100200	25.018859	121.493379	1	榮德里	1087100200	25.018859	121.493379		
1	捷運大安森林公園站	1065600460	25.03355	121.5359159	1	捷運大安森林公園站	1065600460	25.03355	121.5359159		
10	桂林昆明街口	1084900160	25.0381	121.5043	10	桂林昆明街口	1084900160	25.0381	121.5043		
10	龍山國中	1084900610	25.03563	121.50409	10	龍山國中	1084900610	25.03563	121.50409		
11	桂林路	1084800160	25.038472	121.5008151	11	桂林路	1084800160	25.038472	121.5008151		
11	小南門(和平院區)	1006600120	25.036307	121.5085509	11	小南門(和平院區)	1006600120	25.036307	121.5085509		
12	龍山寺(西園)	1085500541	25.0363	121.49929	12	龍山寺(西園)	1085500541	25.0363	121.49929		
12	捷運小南門站	1006600920	25.035233	121.51163	12	捷運小南門站	1006600920	25.035233	121.51163		
13	中國時報	1085500160	25.035454	121.4969752	13	中國時報	1085500160	25.035454	121.4969752		
13	南門	1006600640	25.033565	121.515375	13	南門	1006600640	25.033565	121.515375		
14	華江派出所	1088300140	25.034006	121.493016	14	華江派出所	1088300140	25.034006	121.493016		
